,Neighbourhood,Neighbourhood Latitude,Neighbourhood Longitude,Venue,Venue Latitude,Venue Longitude,Venue Category
0,Paquetá,-22.76423161784222,-43.111232657587436,Parque Darke de Mattos,-22.767168191728302,-43.11135059508332,Park
1,Paquetá,-22.76423161784222,-43.111232657587436,Hotel Lido,-22.76204156593265,-43.11020501063723,Boarding House
2,Paquetá,-22.76423161784222,-43.111232657587436,Praia dos Tamoios,-22.76135093361806,-43.10783176634373,Beach
3,Paquetá,-22.76423161784222,-43.111232657587436,Praia da Moreninha,-22.764291689058883,-43.107618639645274,Beach
4,Paquetá,-22.76423161784222,-43.111232657587436,Praia José Bonifácio,-22.763198336517558,-43.109967719862034,Beach
5,Paquetá,-22.76423161784222,-43.111232657587436,Quintal da Regina,-22.76082021498478,-43.10828818686261,Bar
6,Paquetá,-22.76423161784222,-43.111232657587436,Tia Leleta Bar,-22.76076496942767,-43.10833379457224,Brazilian Restaurant
7,Paquetá,-22.76423161784222,-43.111232657587436,Cantina da ilha,-22.762296435403176,-43.10795490580451,Diner
8,Paquetá,-22.76423161784222,-43.111232657587436,Zeca's Restaurante,-22.761253044463015,-43.107707521439806,Brazilian Restaurant
9,Paquetá,-22.76423161784222,-43.111232657587436,Pedalinho Ilha Paqueta,-22.76212727255294,-43.11012400560128,Harbor / Marina
10,Paquetá,-22.76423161784222,-43.111232657587436,Praia da Guarda,-22.76216553843547,-43.10997245580062,Beach
11,Paquetá,-22.76423161784222,-43.111232657587436,Hotel Meu Cantinho  Ilha de Paquetá,-22.761623121801925,-43.10983984935242,Hotel
12,Paquetá,-22.76423161784222,-43.111232657587436,Padaria e Mercado Carecas e Frescos,-22.763016498913277,-43.107604431166784,Food & Drink Shop
13,Paquetá,-22.76423161784222,-43.111232657587436,Carecas e Frescos,-22.762136,-43.107698,Market
14,Paquetá,-22.76423161784222,-43.111232657587436,Praça Pedro Bruno,-22.76222513916649,-43.10742919293701,Park
15,Paquetá,-22.76423161784222,-43.111232657587436,CCR Barcas - Estação Paquetá,-22.762224118364486,-43.107339205501944,Pier
16,Freguesia (Ilha),-22.784674265512365,-43.16873210348013,Cia de Dança Daniela Monerat,-22.783459728553506,-43.16674338487056,Dance Studio
17,Bancários,-22.79245050038046,-43.180994104672784,Quiosque do Penetra,-22.79369078112314,-43.180752285185086,Snack Place
18,Bancários,-22.79245050038046,-43.180994104672784,Pastel Mania,-22.79545620653807,-43.18252253840228,Pastelaria
19,Bancários,-22.79245050038046,-43.180994104672784,Caju Lanches,-22.792969735400312,-43.184536819500686,Food Truck
20,Bancários,-22.79245050038046,-43.180994104672784,Restaurante do Gaucho,-22.79163825971645,-43.18129656004492,Food
21,Bancários,-22.79245050038046,-43.180994104672784,Subway,-22.795613732378175,-43.18337661147338,Sandwich Place
22,Bancários,-22.79245050038046,-43.180994104672784,Bar Água Viva,-22.795045858832747,-43.180115061448284,Burger Joint
23,Bancários,-22.79245050038046,-43.180994104672784,Kilo Frut,-22.79561298779537,-43.18338214329362,Snack Place
24,Bancários,-22.79245050038046,-43.180994104672784,Rei do Bolinho de Bacalhau,-22.795611412660136,-43.18337770328501,Seafood Restaurant
25,Bancários,-22.79245050038046,-43.180994104672784,Drogarias Pacheco,-22.79561059541508,-43.183381538926206,Drugstore
26,Bancários,-22.79245050038046,-43.180994104672784,Panificação Tauá,-22.79561002929422,-43.18337794935868,Bakery
27,Bancários,-22.79245050038046,-43.180994104672784,Experimenta Lanches,-22.79589292213354,-43.1800961440024,Burger Joint
28,Bancários,-22.79245050038046,-43.180994104672784,Praça dos Bancários,-22.791073163398902,-43.180923775616186,Plaza
29,Bancários,-22.79245050038046,-43.180994104672784,Panificação Oceano,-22.795325169259222,-43.177408848559026,Bakery
30,Bancários,-22.79245050038046,-43.180994104672784,Supermercados Mundial,-22.795606338882852,-43.18338817842611,Supermarket
31,Bancários,-22.79245050038046,-43.180994104672784,New Corpore Academias,-22.790093372020287,-43.17987498950342,Gym / Fitness Center
32,Bancários,-22.79245050038046,-43.180994104672784,Valão Grill,-22.7896745502949,-43.18205203861,Comfort Food Restaurant
33,Bancários,-22.79245050038046,-43.180994104672784,Saborano Pizza,-22.789690358391834,-43.17967522899381,Pizza Place
34,Bancários,-22.79245050038046,-43.180994104672784,Vicente,-22.79519316786281,-43.18245131139686,Fast Food Restaurant
35,Bancários,-22.79245050038046,-43.180994104672784,Quintal da Mazinha,-22.78961837448174,-43.17951442907331,Soup Place
36,Bancários,-22.79245050038046,-43.180994104672784,Praça Manoel Madruga,-22.79313473346213,-43.184432574209275,Plaza
37,Bancários,-22.79245050038046,-43.180994104672784,Legionários,-22.789376486821883,-43.178719880755494,Burger Joint
38,Bancários,-22.79245050038046,-43.180994104672784,botequim carioca,-22.795613602730697,-43.1833772820505,Restaurant
39,Bancários,-22.79245050038046,-43.180994104672784,Espeto na Brasa,-22.788845369548778,-43.17849759416127,BBQ Joint
40,Galeão,-22.80781077420843,-43.236395107003005,Ansef,-22.807352955363637,-43.23824315169418,Other Great Outdoors
41,Galeão,-22.80781077420843,-43.236395107003005,Cases Cell,-22.810073,-43.236398,Mobile Phone Shop
42,Galeão,-22.80781077420843,-43.236395107003005,Fruit,-22.811472472809275,-43.23774576187134,American Restaurant
43,Galeão,-22.80781077420843,-43.236395107003005,Píer do Galeão,-22.811602024357843,-43.23423403431228,Pier
44,Portuguesa,-22.799774720082098,-43.20721561994059,Estádio Luso-Brasileiro (Ilha do Urubu),-22.801912862775104,-43.20846905136539,Soccer Stadium
45,Portuguesa,-22.799774720082098,-43.20721561994059,Coxinha Lanches,-22.79965181980308,-43.21078507962129,Burger Joint
46,Portuguesa,-22.799774720082098,-43.20721561994059,Village Griffe do Pão,-22.800055259261416,-43.20275376640997,Bakery
47,Portuguesa,-22.799774720082098,-43.20721561994059,Associação Atlética da Portuguesa,-22.802028106794864,-43.208757379071116,Sports Club
48,Portuguesa,-22.799774720082098,-43.20721561994059,Sabor Malagueta,-22.795942529050386,-43.20911187808324,Brazilian Restaurant
49,Portuguesa,-22.799774720082098,-43.20721561994059,Lojas Americanas,-22.803597551940594,-43.205089349292464,Department Store
50,Portuguesa,-22.799774720082098,-43.20721561994059,Praça da Santa - Condominio Santos Dumont,-22.799800112450733,-43.206100920297715,Plaza
51,Portuguesa,-22.799774720082098,-43.20721561994059,Brazuka Grill,-22.79935481997485,-43.20275960986401,Bar
52,Portuguesa,-22.799774720082098,-43.20721561994059,Scooby Rações,-22.79600490478757,-43.209077475297946,Pet Service
53,Barros Filho,-22.834961004774282,-43.36416672058039,Praça De Honório Gurgel,-22.83889255094688,-43.362403291721165,Plaza
54,Barros Filho,-22.834961004774282,-43.36416672058039,Lan house Eficácia Informática,-22.833377760789354,-43.366106938855204,Arcade
55,Barros Filho,-22.834961004774282,-43.36416672058039,Pet Shop 4 de Março,-22.837835012268613,-43.361573938652135,Pet Store
56,Barros Filho,-22.834961004774282,-43.36416672058039,Bartista,-22.83912432167671,-43.36287450891356,Brewery
57,Tauá,-22.797700113397866,-43.1866464442446,Panificação & Confeitaria Vale de Cambra,-22.79902683022264,-43.186970819375,Bakery
58,Tauá,-22.797700113397866,-43.1866464442446,Pastel Mania,-22.79545620653807,-43.18252253840228,Pastelaria
59,Tauá,-22.797700113397866,-43.1866464442446,Subway,-22.795613732378175,-43.18337661147338,Sandwich Place
60,Tauá,-22.797700113397866,-43.1866464442446,BR Mania - Posto Insulano,-22.798677303070377,-43.18632922382142,Shop & Service
61,Tauá,-22.797700113397866,-43.1866464442446,Kilo Frut,-22.79561298779537,-43.18338214329362,Snack Place
62,Tauá,-22.797700113397866,-43.1866464442446,Rei do Bolinho de Bacalhau,-22.795611412660136,-43.18337770328501,Seafood Restaurant
63,Tauá,-22.797700113397866,-43.1866464442446,Drogarias Pacheco,-22.79561059541508,-43.183381538926206,Drugstore
64,Tauá,-22.797700113397866,-43.1866464442446,Panificação Tauá,-22.79561002929422,-43.18337794935868,Bakery
65,Tauá,-22.797700113397866,-43.1866464442446,Quiosque do Penetra,-22.797741497759464,-43.185723770809766,Food Truck
66,Tauá,-22.797700113397866,-43.1866464442446,Supermercados Mundial,-22.795606338882852,-43.18338817842611,Supermarket
67,Tauá,-22.797700113397866,-43.1866464442446,Feira livre do Tauá,-22.797786879899864,-43.185765796373936,Farmers Market
68,Tauá,-22.797700113397866,-43.1866464442446,Rey Da Linguiça No Pão,-22.798905107506105,-43.18647092103083,Brazilian Restaurant
69,Tauá,-22.797700113397866,-43.1866464442446,Nice Hair,-22.798317129307225,-43.188400219695026,Health & Beauty Service
70,Tauá,-22.797700113397866,-43.1866464442446,Aquarius - Espaço Saúde e Beleza,-22.797763908612943,-43.18497188059886,Spa
71,Tauá,-22.797700113397866,-43.1866464442446,Droganews,-22.796613482831187,-43.184621940446064,Pharmacy
72,Tauá,-22.797700113397866,-43.1866464442446,Doces e descartáveis,-22.795612002785692,-43.18337627441654,Bagel Shop
73,Tauá,-22.797700113397866,-43.1866464442446,Mercearia Xaxa Dendê,-22.798204020001243,-43.191019786310804,Grocery Store
74,Tauá,-22.797700113397866,-43.1866464442446,Rua Capanema,-22.794329,-43.183544,Pedestrian Plaza
75,Tauá,-22.797700113397866,-43.1866464442446,Mamede Judô,-22.798637647782986,-43.19138386691121,Martial Arts School
76,Flamengo,-22.934710781954674,-43.17418204972766,Pista de Corrida Aterro do Flamengo,-22.935257489420614,-43.17425504287677,Track
77,Flamengo,-22.934710781954674,-43.17418204972766,Boteco Belmonte,-22.935104478108386,-43.17425527850102,Dive Bar
78,Flamengo,-22.934710781954674,-43.17418204972766,Julieta Restaurante,-22.936378189805595,-43.17447483074532,French Restaurant
79,Flamengo,-22.934710781954674,-43.17418204972766,Churrascaria Majórica,-22.933660978477047,-43.176457017501605,Churrascaria
80,Flamengo,-22.934710781954674,-43.17418204972766,Paris Lounge,-22.936352890871298,-43.1741072808994,Lounge
81,Flamengo,-22.934710781954674,-43.17418204972766,Julieta Bar,-22.936355928615626,-43.17409071473554,Cocktail Bar
82,Flamengo,-22.934710781954674,-43.17418204972766,Série Delta,-22.93659115015072,-43.17317661169454,Track
83,Flamengo,-22.934710781954674,-43.17418204972766,Tacacá do Norte,-22.933035730871204,-43.176717484747414,Brazilian Restaurant
84,Flamengo,-22.934710781954674,-43.17418204972766,Mitsuo Japinha,-22.93612416101891,-43.17721371080282,Japanese Restaurant
85,Flamengo,-22.934710781954674,-43.17418204972766,Mestre-Cervejeiro.com,-22.933313271352624,-43.17685624875904,Beer Bar
86,Flamengo,-22.934710781954674,-43.17418204972766,Circuito da Praia,-22.932964645263052,-43.172016189460805,Gym
87,Flamengo,-22.934710781954674,-43.17418204972766,Rede Ultra Mercado,-22.93638059105372,-43.17550305953272,Supermarket
88,Flamengo,-22.934710781954674,-43.17418204972766,Bonomia Lanches,-22.93457102477686,-43.17731874171531,Fast Food Restaurant
89,Flamengo,-22.934710781954674,-43.17418204972766,Samurai San,-22.93313428652235,-43.17547421083994,Japanese Restaurant
90,Flamengo,-22.934710781954674,-43.17418204972766,Academia Upper Sport Clube,-22.93669525946055,-43.177530085598356,Gym / Fitness Center
91,Flamengo,-22.934710781954674,-43.17418204972766,Academia do Flamengo,-22.93313001589808,-43.17546569622643,Gym / Fitness Center
92,Flamengo,-22.934710781954674,-43.17418204972766,Café Lamas,-22.933885982171976,-43.177353971682514,Brazilian Restaurant
93,Flamengo,-22.934710781954674,-43.17418204972766,Bar do Elias,-22.932369510377118,-43.177547143041984,Bar
94,Flamengo,-22.934710781954674,-43.17418204972766,Tambores de Olokun,-22.934289295683264,-43.172490755295826,Public Art
95,Flamengo,-22.934710781954674,-43.17418204972766,La Calaca Cocina Mexicana,-22.9362126665115,-43.177297526589264,Mexican Restaurant
96,Flamengo,-22.934710781954674,-43.17418204972766,Hortifruti,-22.931221078744016,-43.1767825892749,Fruit & Vegetable Store
97,Flamengo,-22.934710781954674,-43.17418204972766,Deck do Aterro,-22.93579269817163,-43.16997709881241,Scenic Lookout
98,Flamengo,-22.934710781954674,-43.17418204972766,aterro do flamengo,-22.93483902830566,-43.178245746984516,Athletics & Sports
99,Flamengo,-22.934710781954674,-43.17418204972766,Teatro Municipal de Marionetes Carlos Werneck,-22.9351245938304,-43.172697301494445,Indie Theater
100,Flamengo,-22.934710781954674,-43.17418204972766,Mundo das Pizzas,-22.933177385175064,-43.17529728616977,Pizza Place
101,Flamengo,-22.934710781954674,-43.17418204972766,Intihuasi,-22.933113619818048,-43.17570927487882,Peruvian Restaurant
102,Flamengo,-22.934710781954674,-43.17418204972766,Casa Vitana,-22.934831054368544,-43.177126016883115,Japanese Restaurant
103,Flamengo,-22.934710781954674,-43.17418204972766,Praça Cuauhtemoque,-22.93760633217322,-43.17332983016968,Plaza
104,Flamengo,-22.934710781954674,-43.17418204972766,"Spé, O Spa do Pé",-22.93218577422963,-43.17769896230462,Spa
105,Flamengo,-22.934710781954674,-43.17418204972766,Smart Fit,-22.93595082226162,-43.17498150819016,Gym / Fitness Center
106,Moneró,-22.796429204215777,-43.197598613896204,Beer16 Petiscaria,-22.799459506214898,-43.1972398986692,Bar
107,Moneró,-22.796429204215777,-43.197598613896204,Angra dos Reis,-22.797681962529257,-43.193199502285836,Beach
108,Moneró,-22.796429204215777,-43.197598613896204,Team Moraes,-22.800234379167428,-43.19967309710062,Martial Arts School
109,Moneró,-22.796429204215777,-43.197598613896204,Quiosque Gruta da Ilha,-22.799838934741985,-43.19634361177024,Food Truck
110,Moneró,-22.796429204215777,-43.197598613896204,Corredor Esportivo,-22.793867694650462,-43.20017337799072,Park
111,Moneró,-22.796429204215777,-43.197598613896204,Point do Village,-22.79738962088832,-43.200995971174805,Dive Bar
112,Moneró,-22.796429204215777,-43.197598613896204,Praça Papai Noel,-22.797763154438528,-43.197982514057806,Park
113,Moneró,-22.796429204215777,-43.197598613896204,Padaria e Mercearia Princesinha do Moneró,-22.795966997769618,-43.19836999437237,Bakery
114,Moneró,-22.796429204215777,-43.197598613896204,Crepe & Cevada,-22.794339914261833,-43.20154086378298,Creperie
115,Moneró,-22.796429204215777,-43.197598613896204,Posto Buggy (Shell),-22.80005199548181,-43.20026911730428,Gas Station
116,Moneró,-22.796429204215777,-43.197598613896204,Salsa & Merengue,-22.797184354468854,-43.19353633418052,Buffet
117,Moneró,-22.796429204215777,-43.197598613896204,Academia Musculo e Ação,-22.79771154045021,-43.19320993004857,Athletics & Sports
118,Campo Grande,-22.88245785448513,-43.55022952624804,Aquarela dos Sucos,-22.8831328145697,-43.547187561721984,Juice Bar
119,Campo Grande,-22.88245785448513,-43.55022952624804,supermercados campeão,-22.88439324421023,-43.5489902302069,Supermarket
120,Campo Grande,-22.88245785448513,-43.55022952624804,body move,-22.883153187108476,-43.547415030994,Gym
121,Campo Grande,-22.88245785448513,-43.55022952624804,Barraca do Marcelo,-22.885018,-43.551722,Burger Joint
122,Campo Grande,-22.88245785448513,-43.55022952624804,Carolzinha Lanchonete,-22.885378,-43.549408,Fast Food Restaurant
123,Campo Grande,-22.88245785448513,-43.55022952624804,Barba Nossa,-22.885502,-43.54963,Health & Beauty Service
124,Campo Grande,-22.88245785448513,-43.55022952624804,Mercado Dular,-22.88328887975965,-43.546698314212186,Grocery Store
125,Campo Grande,-22.88245785448513,-43.55022952624804,Box 23,-22.878868511078824,-43.55000475687715,Auto Garage
126,Campo Grande,-22.88245785448513,-43.55022952624804,Paleteca,-22.878792130912004,-43.55011690123071,Ice Cream Shop
127,Campo Grande,-22.88245785448513,-43.55022952624804,Praça da Vila Yolanda,-22.881331837461172,-43.554850837792216,Plaza
128,Jardim América,-22.810257091771476,-43.32335379187596,Primo Lanches,-22.812046779652157,-43.32528125805382,Snack Place
129,Jardim América,-22.810257091771476,-43.32335379187596,Real Pizza,-22.81155248112418,-43.32522185984922,Pizza Place
130,Jardim América,-22.810257091771476,-43.32335379187596,Sorveteria Curva do S,-22.809362905053536,-43.32754916289588,Ice Cream Shop
131,Jardim América,-22.810257091771476,-43.32335379187596,América Grill,-22.813566324268315,-43.32573809291743,Restaurant
132,Jardim América,-22.810257091771476,-43.32335379187596,Bar Do Sid,-22.807331128700515,-43.32236068179007,Steakhouse
133,Jardim América,-22.810257091771476,-43.32335379187596,Subway,-22.808228095355773,-43.32152712650434,Sandwich Place
134,Jardim América,-22.810257091771476,-43.32335379187596,Supermercado Campeão,-22.811241864027675,-43.32085309218339,Grocery Store
135,Jardim América,-22.810257091771476,-43.32335379187596,Academia Las Vegas,-22.808301953198402,-43.3200621067964,Gym
136,Jardim América,-22.810257091771476,-43.32335379187596,Raro's Burgues,-22.810713,-43.32558,Burger Joint
137,Jardim América,-22.810257091771476,-43.32335379187596,Acelétrica,-22.810947329111507,-43.320969343185425,Electronics Store
138,Jardim América,-22.810257091771476,-43.32335379187596,Boca Nervosa Lanches,-22.80828792386454,-43.32152712650434,Burger Joint
139,Jardim América,-22.810257091771476,-43.32335379187596,Padaria da Rua Sete,-22.810623747534336,-43.32768119628628,Bakery
140,Vigário Geral,-22.80902209344595,-43.31021646795761,Pega Leve Pizza,-22.81227989545303,-43.30986768542194,Pizza Place
141,Vigário Geral,-22.80902209344595,-43.31021646795761,DIFIN - Duloren S/A,-22.808709635099145,-43.306350110168744,Cave
142,Vigário Geral,-22.80902209344595,-43.31021646795761,Acadêmicos de Vigário Geral,-22.80693,-43.30679,Samba School
143,Vigário Geral,-22.80902209344595,-43.31021646795761,Praça Catolé do Rocha,-22.80625207913702,-43.30687220412055,Park
144,Cocotá,-22.804117406743952,-43.180412521198086,ProQuality Fitness Center,-22.805091490977702,-43.182050215905335,Gym / Fitness Center
145,Cocotá,-22.804117406743952,-43.180412521198086,Subway,-22.806101836190283,-43.18218647879166,Sandwich Place
146,Cocotá,-22.804117406743952,-43.180412521198086,Esporte Clube Cocotá,-22.807032085239197,-43.18322215551866,Gym Pool
147,Cocotá,-22.804117406743952,-43.180412521198086,Centro Comercial Mancini,-22.805014228871123,-43.18240104077758,Shopping Plaza
148,Cocotá,-22.804117406743952,-43.180412521198086,Parque Poeta Manuel Bandeira (Aterro do Cocotá),-22.804289387469872,-43.18164262175425,Park
149,Cocotá,-22.804117406743952,-43.180412521198086,Academia Companhia do Corpo,-22.807301509124304,-43.18380208852312,Gym / Fitness Center
150,Cocotá,-22.804117406743952,-43.180412521198086,Quadras De Tênis Cocotá,-22.805494070139712,-43.18207297867744,Tennis Court
151,Cocotá,-22.804117406743952,-43.180412521198086,Regional,-22.805606,-43.18211,Department Store
152,Cocotá,-22.804117406743952,-43.180412521198086,Ilha Lanches,-22.80744641305156,-43.179214553529285,Fast Food Restaurant
153,Cocotá,-22.804117406743952,-43.180412521198086,Ilha Paintball,-22.80078105511996,-43.178951625309395,Paintball Field
154,Jardim Carioca,-22.805672456120153,-43.19300039299783,Social Burguer,-22.8089221613585,-43.19580672502961,Burger Joint
155,Jardim Carioca,-22.805672456120153,-43.19300039299783,Romanella Grill,-22.808841470111503,-43.19613107938333,Pizza Place
156,Jardim Carioca,-22.805672456120153,-43.19300039299783,Rei do Mate,-22.805086323282147,-43.1978328582392,Tea Room
157,Jardim Carioca,-22.805672456120153,-43.19300039299783,Sushi Mix,-22.805010933387383,-43.19765358061739,Sushi Restaurant
158,Jardim Carioca,-22.805672456120153,-43.19300039299783,Curves,-22.80852355572294,-43.19625755591868,Gym / Fitness Center
159,Jardim Carioca,-22.805672456120153,-43.19300039299783,Restaurante e Pizzaria Zamak,-22.8088712668956,-43.19586653665788,Brazilian Restaurant
160,Jardim Carioca,-22.805672456120153,-43.19300039299783,Ilha Fitness,-22.80870858719046,-43.19657882216734,Gym
161,Jardim Carioca,-22.805672456120153,-43.19300039299783,Caju Lanches,-22.80626052526364,-43.19640597409987,Fast Food Restaurant
162,Jardim Carioca,-22.805672456120153,-43.19300039299783,Droganews,-22.807974,-43.196855,Pharmacy
163,Jardim Carioca,-22.805672456120153,-43.19300039299783,Açaí Lanches,-22.806580255043592,-43.19203478058526,Burger Joint
164,Jardim Carioca,-22.805672456120153,-43.19300039299783,Dona Lili Modas,-22.803107682384105,-43.195686438203786,Boutique
165,Jardim Carioca,-22.805672456120153,-43.19300039299783,Caixa dágua do Guarabú,-22.802058390212242,-43.190532765287045,Plaza
166,Pavuna,-22.812686970311017,-43.360104735728896,Point da Família,-22.815724686605822,-43.36060791343427,Burger Joint
167,Pavuna,-22.812686970311017,-43.360104735728896,Padaria do Russo,-22.81441267408113,-43.36116189025925,Bakery
168,Pavuna,-22.812686970311017,-43.360104735728896,Flor da Pavuna - Padaria e Confeitaria,-22.80876357688467,-43.36194318477847,Bakery
169,Pavuna,-22.812686970311017,-43.360104735728896,Arena Carioca Jovelina Pérola Negra,-22.808755236622172,-43.36195063626343,Theater
170,Pavuna,-22.812686970311017,-43.360104735728896,Academia JLS,-22.81134122075662,-43.36221060623081,Gym / Fitness Center
171,Pavuna,-22.812686970311017,-43.360104735728896,Esquina do Russo,-22.815682646579088,-43.36096405232691,Bar
172,Pavuna,-22.812686970311017,-43.360104735728896,Academia Performance Vip,-22.81524102473861,-43.359194184278564,Gym / Fitness Center
173,Pavuna,-22.812686970311017,-43.360104735728896,Bazileu,-22.80845876105603,-43.360383925122775,Bar
174,Pavuna,-22.812686970311017,-43.360104735728896,Lojas Americanas,-22.80874804326865,-43.35926015919687,Department Store
175,Pavuna,-22.812686970311017,-43.360104735728896,Eduardo Coiffeur,-22.810842263527405,-43.357706845579024,Health & Beauty Service
176,Pavuna,-22.812686970311017,-43.360104735728896,padaria,-22.810849687851793,-43.3576987800463,Convenience Store
177,Pavuna,-22.812686970311017,-43.360104735728896,Dino's Lanches,-22.815802,-43.357327,Burger Joint
178,Pavuna,-22.812686970311017,-43.360104735728896,Powerlan 3,-22.816041431085957,-43.35747957229614,Internet Cafe
179,Pavuna,-22.812686970311017,-43.360104735728896,ATP - ACADEMIA TREINO PERFEITO,-22.81393812866141,-43.35543818259056,Gym
180,Parada de Lucas,-22.815694662849747,-43.30085380048468,Rei do Mate,-22.816247128643006,-43.30206490734476,Tea Room
181,Parada de Lucas,-22.815694662849747,-43.30085380048468,SuperVia - Estação Parada de Lucas,-22.815722670982744,-43.30100337132873,Train Station
182,Parada de Lucas,-22.815694662849747,-43.30085380048468,Intercontinental Supermercados,-22.818354198320296,-43.302777584104064,Grocery Store
183,Parada de Lucas,-22.815694662849747,-43.30085380048468,Hortifruti Império,-22.81670125959005,-43.301135474815105,Fruit & Vegetable Store
184,Parada de Lucas,-22.815694662849747,-43.30085380048468,Dogão Mania,-22.814313802151883,-43.299965403231965,Food Truck
185,Parada de Lucas,-22.815694662849747,-43.30085380048468,Restaurante Sheknah,-22.815853,-43.301333,Brazilian Restaurant
186,Parada de Lucas,-22.815694662849747,-43.30085380048468,Chocolates Trufaela,-22.81474418227408,-43.3000975094579,Chocolate Shop
187,Parada de Lucas,-22.815694662849747,-43.30085380048468,Parque Shangai,-22.817244803989343,-43.3010080893164,Theme Park Ride / Attraction
188,Parada de Lucas,-22.815694662849747,-43.30085380048468,Sabor da Fruta,-22.81515857048058,-43.29950302869536,Ice Cream Shop
189,Parada de Lucas,-22.815694662849747,-43.30085380048468,Lotérica Parada De Lucas,-22.81446,-43.30102,ATM
190,Parada de Lucas,-22.815694662849747,-43.30085380048468,Pescoção Lanches,-22.814071482012938,-43.29841784719142,Burger Joint
191,Parada de Lucas,-22.815694662849747,-43.30085380048468,manels bar,-22.81769814505707,-43.30352819620733,Restaurant
192,Parada de Lucas,-22.815694662849747,-43.30085380048468,Frango A Passarim,-22.813425,-43.29838,Wings Joint
193,Parada de Lucas,-22.815694662849747,-43.30085380048468,Lanchonete da Rosa,-22.81327298664125,-43.2985216481789,Pizza Place
194,Parada de Lucas,-22.815694662849747,-43.30085380048468,Bonde das pizzas,-22.812596450758093,-43.2973232054929,Pizza Place
195,Cordovil,-22.81892452229838,-43.29268320621141,Máfia Feminina,-22.817979,-43.29255,Women's Store
196,Cordovil,-22.81892452229838,-43.29268320621141,Supermercado Feira Nova,-22.818854923296833,-43.29362690448761,Food & Drink Shop
197,Cordovil,-22.81892452229838,-43.29268320621141,Academia Fly Body,-22.819031634782405,-43.290734245470645,Gym / Fitness Center
198,Cordovil,-22.81892452229838,-43.29268320621141,Praça da Cidade Alta,-22.81985839356172,-43.29215636231085,Plaza
199,Cordovil,-22.81892452229838,-43.29268320621141,Pensão da Elza,-22.81914621482328,-43.29055193722305,Brazilian Restaurant
200,Cordovil,-22.81892452229838,-43.29268320621141,padaria do flamengo,-22.816743055354557,-43.29359558225195,Bakery
201,Cordovil,-22.81892452229838,-43.29268320621141,Lanchonete da Elza,-22.8160457611084,-43.292964935302734,Burger Joint
202,Cordovil,-22.81892452229838,-43.29268320621141,pagode do nogueira,-22.821155274750172,-43.29046227665744,Music Venue
203,Cordovil,-22.81892452229838,-43.29268320621141,Thata's Lanches,-22.81659,-43.29052,Burger Joint
204,Cordovil,-22.81892452229838,-43.29268320621141,Super Hot,-22.822327,-43.293674,Burger Joint
205,Cordovil,-22.81892452229838,-43.29268320621141,Nossa Rede Supermercados Cordovil,-22.82184206774759,-43.29040564884909,Grocery Store
206,Jardim Guanabara,-22.8128687571129,-43.20205745949093,Academia Body Place,-22.81303451887323,-43.204010035789736,Gym
207,Jardim Guanabara,-22.8128687571129,-43.20205745949093,Rei do Peixe,-22.813033758616946,-43.20404939527839,Deli / Bodega
208,Jardim Guanabara,-22.8128687571129,-43.20205745949093,Quiosque das Flores,-22.811848187669302,-43.199786153004126,Flower Shop
209,Jardim Guanabara,-22.8128687571129,-43.20205745949093,Restaurante Lagostinne,-22.815888496046437,-43.20565803414581,Seafood Restaurant
210,Jardim Guanabara,-22.8128687571129,-43.20205745949093,Guanabara Garden,-22.81246507736312,-43.2026643322329,Bed & Breakfast
211,Jardim Guanabara,-22.8128687571129,-43.20205745949093,Praça Jerusalém,-22.815754470347382,-43.200988555544654,Plaza
212,Jardim Guanabara,-22.8128687571129,-43.20205745949093,Praça do Grego,-22.817241391911725,-43.203001467377966,Plaza
213,Jardim Guanabara,-22.8128687571129,-43.20205745949093,Quiosque do Grego,-22.817278986691964,-43.2029343245864,Burger Joint
214,Jardim Guanabara,-22.8128687571129,-43.20205745949093,Sushiro Culinária Japonesa,-22.8134421554253,-43.206774728793654,Japanese Restaurant
215,Jardim Guanabara,-22.8128687571129,-43.20205745949093,Super Sanduicheria (Podrão),-22.81726664382898,-43.20294039774826,Burger Joint
216,Jardim Guanabara,-22.8128687571129,-43.20205745949093,Reuel Studios,-22.813401627152544,-43.19809992777375,Recording Studio
217,Jardim Guanabara,-22.8128687571129,-43.20205745949093,Panificação Guanabara,-22.81301076731164,-43.20401102026627,Bakery
218,Jardim Guanabara,-22.8128687571129,-43.20205745949093,Sushi Mix Jardim Guanabara,-22.816467,-43.204971,Japanese Restaurant
219,Parque Colúmbia,-22.81421287045919,-43.34198432738094,Simpatia Carioca,-22.81674159175468,-43.34319504820746,Restaurant
220,Parque Colúmbia,-22.81421287045919,-43.34198432738094,Favo De Mel Mercado,-22.8143,-43.341064,Supermarket
221,Parque Colúmbia,-22.81421287045919,-43.34198432738094,Bar do Carlinhos/Ponto das Kombis,-22.81408166799178,-43.33944414662486,Snack Place
222,Parque Colúmbia,-22.81421287045919,-43.34198432738094,Mery Lanche Feliz,-22.815625198970892,-43.339472180943055,Burger Joint
223,Parque Colúmbia,-22.81421287045919,-43.34198432738094,Gastronomia Carioca,-22.812115591003913,-43.34011434902256,Brazilian Restaurant
224,Parque Colúmbia,-22.81421287045919,-43.34198432738094,Body Station Fitness Center,-22.81677459263422,-43.34075396879795,Gym / Fitness Center
225,Parque Colúmbia,-22.81421287045919,-43.34198432738094,Dom Carioca Restaurante,-22.812299673060185,-43.33969477467414,Restaurant
226,Parque Colúmbia,-22.81421287045919,-43.34198432738094,Trailler da Mery,-22.811890877461135,-43.343942212888884,Food Stand
227,Parque Colúmbia,-22.81421287045919,-43.34198432738094,Restaurante Amarelinho,-22.812123871859136,-43.33958344360291,Brazilian Restaurant
228,Parque Colúmbia,-22.81421287045919,-43.34198432738094,Bar e Restaurante Ceará,-22.813265619285445,-43.33770999880785,Brazilian Restaurant
229,Parque Colúmbia,-22.81421287045919,-43.34198432738094,Ninja,-22.81426316813233,-43.337290404262816,Pizza Place
230,Praia da Bandeira,-22.810456150350376,-43.17960240608538,Vista do Tijolinho,-22.8125057220459,-43.17739486694336,Scenic Lookout
231,Praia da Bandeira,-22.810456150350376,-43.17960240608538,Tudão,-22.811132997827166,-43.183562647325054,Burger Joint
232,Praia da Bandeira,-22.810456150350376,-43.17960240608538,Praça Comandante Nelson Mege,-22.810739697738022,-43.178927977954785,Plaza
233,Praia da Bandeira,-22.810456150350376,-43.17960240608538,Catamarã Harpia,-22.810760535526747,-43.178899461985424,Boat or Ferry
234,Praia da Bandeira,-22.810456150350376,-43.17960240608538,Ilha Lanches,-22.80744641305156,-43.179214553529285,Fast Food Restaurant
235,Praia da Bandeira,-22.810456150350376,-43.17960240608538,Princesinha da Ilha,-22.811146982970786,-43.183392401709604,Diner
236,Praia da Bandeira,-22.810456150350376,-43.17960240608538,Ponto De Onibus,-22.810211728825134,-43.1841821473463,Bus Station
237,Pitangueiras,-22.816953653518404,-43.17999210024179,Point Do Peixe,-22.815003381997812,-43.1770787204489,Food Truck
238,Pitangueiras,-22.816953653518404,-43.17999210024179,Praia das Pitangueiras,-22.81503332503856,-43.17699538070404,Beach
239,Pitangueiras,-22.816953653518404,-43.17999210024179,Vila Olímpica,-22.815878847049117,-43.182092652020486,Athletics & Sports
240,Pitangueiras,-22.816953653518404,-43.17999210024179,Mouras Bar,-22.819222115349312,-43.177830340817586,Bakery
241,Pitangueiras,-22.816953653518404,-43.17999210024179,Píer Das Pitangueiras,-22.815035438784733,-43.17697539349396,Harbor / Marina
242,Penha Circular,-22.83127285366351,-43.285813546343505,Arte do Corpo Academia,-22.829974214663974,-43.28730959634623,Gym / Fitness Center
243,Penha Circular,-22.83127285366351,-43.285813546343505,Bar da Antonia,-22.830050883332746,-43.2884849844331,Bar
244,Penha Circular,-22.83127285366351,-43.285813546343505,Praça Anhangabaúba,-22.830498565066588,-43.28620085519379,Plaza
245,Penha Circular,-22.83127285366351,-43.285813546343505,Campo do Vila,-22.83045928398199,-43.28283320007753,Soccer Field
246,Penha Circular,-22.83127285366351,-43.285813546343505,Cantina do Sidney,-22.83396037661234,-43.28704606701378,Snack Place
247,Penha Circular,-22.83127285366351,-43.285813546343505,ChuGatinho,-22.82886893648453,-43.288324532474974,Food Truck
248,Penha Circular,-22.83127285366351,-43.285813546343505,Rigra Sorvetes,-22.830903580077692,-43.28970723394769,Ice Cream Shop
249,Penha Circular,-22.83127285366351,-43.285813546343505,Clube Coimbra,-22.829548384429586,-43.28209010402914,Soccer Field
250,Penha Circular,-22.83127285366351,-43.285813546343505,Point do Churrasco,-22.835039684281824,-43.288178237594565,BBQ Joint
251,Penha Circular,-22.83127285366351,-43.285813546343505,Drogaria Mais Oferta,-22.83035734996667,-43.290542499276334,Pharmacy
252,Bangu,-22.857498314883813,-43.48508756308416,Habib's,-22.854457674401008,-43.48675787909976,Fast Food Restaurant
253,Bangu,-22.857498314883813,-43.48508756308416,Cirp,-22.856327,-43.484568,Pedestrian Plaza
254,Bangu,-22.857498314883813,-43.48508756308416,Jardim do Éden,-22.856886,-43.482704,Pedestrian Plaza
255,Bangu,-22.857498314883813,-43.48508756308416,Malvina,-22.860016150070418,-43.48559646217607,Beer Garden
256,Bangu,-22.857498314883813,-43.48508756308416,Aghora loja de Conveniencia,-22.854718230971834,-43.48278109570743,Convenience Store
257,Bangu,-22.857498314883813,-43.48508756308416,Barbearia Dom Petrux,-22.854533,-43.487734,Salon / Barbershop
258,Bangu,-22.857498314883813,-43.48508756308416,padaria Jeferson,-22.8583,-43.4807,Bakery
259,Cacuia,-22.822279044607104,-43.18379616541452,Chilli Beans,-22.820972541516603,-43.17913607429444,Accessories Store
260,Cacuia,-22.822279044607104,-43.18379616541452,Tijuca - Rio de Janeiro,-22.818442953428622,-43.18566229593091,Nature Preserve
261,Irajá,-22.8350855934604,-43.32597132771049,Supermercados Mundial,-22.83301815382467,-43.32741825818181,Supermarket
262,Irajá,-22.8350855934604,-43.32597132771049,Pro Sports,-22.836253830417377,-43.325506005176806,Gym / Fitness Center
263,Irajá,-22.8350855934604,-43.32597132771049,Academia Technofit,-22.839239971365306,-43.324153547117845,Gym / Fitness Center
264,Irajá,-22.8350855934604,-43.32597132771049,Subway,-22.833444924904555,-43.32862146712334,Sandwich Place
265,Irajá,-22.8350855934604,-43.32597132771049,Rei do Mate,-22.832241399102706,-43.328496966284575,Tea Room
266,Irajá,-22.8350855934604,-43.32597132771049,39' Bikers Pub,-22.835412089857005,-43.32626404337304,Pub
267,Irajá,-22.8350855934604,-43.32597132771049,Padaria Rio 95,-22.83653826163568,-43.32539546233819,Bakery
268,Irajá,-22.8350855934604,-43.32597132771049,Rei do Mate,-22.832986680340035,-43.32746899959584,Tea Room
269,Irajá,-22.8350855934604,-43.32597132771049,Mercado Bifão,-22.838028061451748,-43.324375675773645,Market
270,Irajá,-22.8350855934604,-43.32597132771049,Du Dudu Kilo Grill,-22.833743431731047,-43.32764885310108,Restaurant
271,Irajá,-22.8350855934604,-43.32597132771049,Praça Nossa Senhora da Apresentação,-22.831085506212258,-43.327827375704494,Plaza
272,Irajá,-22.8350855934604,-43.32597132771049,Pizzaria Italia Carioca,-22.836746,-43.325494,Pizza Place
273,Irajá,-22.8350855934604,-43.32597132771049,Habib's,-22.83266892437919,-43.32830222443869,Fast Food Restaurant
274,Irajá,-22.8350855934604,-43.32597132771049,Padaria e Confeitaria Riger,-22.837888987927617,-43.32441643081745,Bakery
275,Irajá,-22.8350855934604,-43.32597132771049,Praça Maria Ester/1059,-22.83767372535859,-43.32821875720331,Park
276,Irajá,-22.8350855934604,-43.32597132771049,Lanchonete do Sr. Arly (Barraca da Tia Cida),-22.838587,-43.325078,Food Truck
277,Coelho Neto,-22.832110316247903,-43.35043752473099,Academia Vibração,-22.830939902168506,-43.35259206984688,Gym
278,Coelho Neto,-22.832110316247903,-43.35043752473099,Praça Othon de Almeida,-22.831376524474553,-43.35082880049936,Plaza
279,Coelho Neto,-22.832110316247903,-43.35043752473099,Padaria,-22.83030133615853,-43.35137553882565,Bakery
280,Coelho Neto,-22.832110316247903,-43.35043752473099,Caldinho da Mamãe,-22.83035665513177,-43.348736057097504,Soup Place
281,Coelho Neto,-22.832110316247903,-43.35043752473099,BOLOFIT Fabrica De Bolos,-22.830275,-43.352093,Dessert Shop
282,Coelho Neto,-22.832110316247903,-43.35043752473099,Galeto do Afonso,-22.83029362132021,-43.35344460638002,Fried Chicken Joint
283,Coelho Neto,-22.832110316247903,-43.35043752473099,Rede Super Compras,-22.830263,-43.353488,Supermarket
284,Coelho Neto,-22.832110316247903,-43.35043752473099,Tangamandápio,-22.830328168597752,-43.34681291824595,Rest Area
285,Coelho Neto,-22.832110316247903,-43.35043752473099,Fábio Picoca's Gourmet,-22.833365607366538,-43.354363640767644,Food Truck
286,Coelho Neto,-22.832110316247903,-43.35043752473099,Hélio Moreno,-22.83332540092923,-43.35443197846685,Clothing Store
287,Coelho Neto,-22.832110316247903,-43.35043752473099,Espaço Maria Gama,-22.83334563626047,-43.354489176501694,Spa
288,Coelho Neto,-22.832110316247903,-43.35043752473099,Academia KiForma,-22.833331491551167,-43.35450929316561,Gym / Fitness Center
289,Anchieta,-22.823903796233125,-43.39974736378031,Paróquia Nossa Senhora de Nazaré,-22.82172971624446,-43.399117842614444,Church
290,Anchieta,-22.823903796233125,-43.39974736378031,Point da Família - Anchieta,-22.821380639008407,-43.398829379085484,Fast Food Restaurant
291,Anchieta,-22.823903796233125,-43.39974736378031,Excallibur Restaurante e Choperia,-22.827856213547648,-43.40082456744945,Gastropub
292,Anchieta,-22.823903796233125,-43.39974736378031,Praça Nossa Senhora de Nazaré,-22.82137666966428,-43.39811364375635,Plaza
293,Anchieta,-22.823903796233125,-43.39974736378031,Academia Pureza,-22.827501150786755,-43.40131452524651,Gym / Fitness Center
294,Anchieta,-22.823903796233125,-43.39974736378031,Lona Cultural Anchieta,-22.82410684545336,-43.40225723219658,General Entertainment
295,Anchieta,-22.823903796233125,-43.39974736378031,Academia R2 Fitness,-22.8222721855778,-43.398852471853736,Gym / Fitness Center
296,Anchieta,-22.823903796233125,-43.39974736378031,Praça Granito,-22.821771461752817,-43.399822915773505,Plaza
297,Anchieta,-22.823903796233125,-43.39974736378031,Pça. Da Nazaré,-22.821659088134766,-43.39875030517578,Plaza
298,Anchieta,-22.823903796233125,-43.39974736378031,Redeconomia,-22.824084670049096,-43.40439207582338,Supermarket
299,Anchieta,-22.823903796233125,-43.39974736378031,Anchieta,-22.821430104006726,-43.39806184671864,Plaza
300,Anchieta,-22.823903796233125,-43.39974736378031,Lanche do Silvio,-22.826731631127796,-43.39894238903192,Food Truck
301,Anchieta,-22.823903796233125,-43.39974736378031,Clube Mocidade FC,-22.82031308402283,-43.40132616267411,Sports Club
302,Anchieta,-22.823903796233125,-43.39974736378031,Feira Nova,-22.8238870698745,-43.40434302178927,Market
303,Acari,-22.82216082136515,-43.341001110740734,Churrascaria Boi Bom Na Brasa,-22.824046,-43.340605,Churrascaria
304,Acari,-22.82216082136515,-43.341001110740734,Pizzaria Tropical,-22.82483358811626,-43.34343781903975,Pizza Place
305,Acari,-22.82216082136515,-43.341001110740734,Sorveteria Ravis,-22.825928494769677,-43.34085920266638,Ice Cream Shop
306,Acari,-22.82216082136515,-43.341001110740734,Campo do Relâmpago,-22.823047858300026,-43.336429595947266,Soccer Field
307,Acari,-22.82216082136515,-43.341001110740734,Mercadinho Casal 20,-22.826557232284145,-43.340882773802896,Market
308,Costa Barros,-22.824988281006274,-43.369994059754866,Raquel Lanches,-22.826861811824852,-43.37075731239413,Diner
309,Costa Barros,-22.824988281006274,-43.369994059754866,Bar do João,-22.827108610892655,-43.37085154040485,Liquor Store
310,Costa Barros,-22.824988281006274,-43.369994059754866,SuperVia - Estação Costa Barros,-22.821836469351172,-43.370161056518555,Train Station
311,Costa Barros,-22.824988281006274,-43.369994059754866,Praça Itacajá,-22.821289947524438,-43.3675157604122,Plaza
312,Guadalupe,-22.83886219126798,-43.3754098549593,Life Academia,-22.835349239912208,-43.377889869354696,Gym / Fitness Center
313,Guadalupe,-22.83886219126798,-43.3754098549593,Bocão Lanches,-22.839031241184987,-43.37882071989009,Burger Joint
314,Guadalupe,-22.83886219126798,-43.3754098549593,Sabor do Açaí,-22.838689105557428,-43.379028624334154,Snack Place
315,Guadalupe,-22.83886219126798,-43.3754098549593,Adega & Chopperia,-22.8367475216857,-43.37431272723732,Beer Garden
316,Guadalupe,-22.83886219126798,-43.3754098549593,Luck's Bar,-22.838674406698892,-43.37901250982196,Bar
317,Guadalupe,-22.83886219126798,-43.3754098549593,Padaria Caprichos do Trigo,-22.83571974916838,-43.37556151125594,Bakery
318,Guadalupe,-22.83886219126798,-43.3754098549593,Crepearte,-22.8380456182231,-43.373301406185014,Pizza Place
319,Guadalupe,-22.83886219126798,-43.3754098549593,Erick Lanches,-22.84016977,-43.37786766,Fast Food Restaurant
320,Guadalupe,-22.83886219126798,-43.3754098549593,Empada Show,-22.838414230630892,-43.378266726411226,Food Truck
321,Guadalupe,-22.83886219126798,-43.3754098549593,uai sô comida mineira,-22.838671752692214,-43.378426889797495,Buffet
322,Guadalupe,-22.83886219126798,-43.3754098549593,MDM Pizzaria e Bar,-22.841732672384477,-43.37687234107055,Pizza Place
323,Guadalupe,-22.83886219126798,-43.3754098549593,Prezunic,-22.842288868275222,-43.3742617281795,Supermarket
324,Guadalupe,-22.83886219126798,-43.3754098549593,Japa Louco Culinária Oriental,-22.842273285786334,-43.37426870972405,Japanese Restaurant
325,Guadalupe,-22.83886219126798,-43.3754098549593,Praça da Belgica,-22.8399,-43.3798,Plaza
326,Guadalupe,-22.83886219126798,-43.3754098549593,Ponto Regulador do 1132,-22.841643630509974,-43.37197755135549,Bus Station
327,Guadalupe,-22.83886219126798,-43.3754098549593,General Burger,-22.835302695867426,-43.37804532323575,Burger Joint
328,Guadalupe,-22.83886219126798,-43.3754098549593,Açaí da Loira Abençoada,-22.838823921980403,-43.38015096895606,Food Stand
329,Brás de Pina,-22.831141980134188,-43.2972885805024,CT Ingenito Fight Club,-22.83048,-43.294072,Martial Arts School
330,Brás de Pina,-22.831141980134188,-43.2972885805024,Vianense Supermercados,-22.831027455159283,-43.292524126642704,Market
331,Brás de Pina,-22.831141980134188,-43.2972885805024,A Rainha dos Caldos,-22.827168882880976,-43.29909254976247,Soup Place
332,Brás de Pina,-22.831141980134188,-43.2972885805024,Estação do Pão de Brás de Pina,-22.827701186632957,-43.2953367471436,Bakery
333,Penha,-22.837928976234483,-43.27600336297336,Café Xatô,-22.839607,-43.277645,Café
334,Penha,-22.837928976234483,-43.27600336297336,Grupo 14 Comunicação Visual,-22.8398016215023,-43.2784241437912,Print Shop
335,Penha,-22.837928976234483,-43.27600336297336,Espetto Carioca,-22.83800408676029,-43.27711769174279,BBQ Joint
336,Penha,-22.837928976234483,-43.27600336297336,Experimenta Lanches,-22.836089774105975,-43.27585508794648,Burger Joint
337,Penha,-22.837928976234483,-43.27600336297336,Domino's Pizza,-22.839595452494628,-43.2793108591379,Pizza Place
338,Penha,-22.837928976234483,-43.27600336297336,Alfa & Ômega Sanduíches & Cia,-22.840406418356455,-43.27682728390025,Food Truck
339,Penha,-22.837928976234483,-43.27600336297336,Music Beer,-22.83848010015438,-43.27823642536854,Southeastern Brazilian Restaurant
340,Penha,-22.837928976234483,-43.27600336297336,Sabor do Pão,-22.8397644759683,-43.27575016658972,Bakery
341,Penha,-22.837928976234483,-43.27600336297336,Espaço Mix,-22.839046792361128,-43.279854414279086,Bar
342,Penha,-22.837928976234483,-43.27600336297336,Academia Up Fit,-22.839266280271843,-43.27662274983207,Gym / Fitness Center
343,Penha,-22.837928976234483,-43.27600336297336,Academia Adrenalina Fitness,-22.83464469677758,-43.273226240631104,Gym
344,Penha,-22.837928976234483,-43.27600336297336,Império Gourmet,-22.83675806507494,-43.27832070902293,Restaurant
345,Penha,-22.837928976234483,-43.27600336297336,SuperVia - Estação Penha,-22.840277913883586,-43.27897023880908,Train Station
346,Penha,-22.837928976234483,-43.27600336297336,Academia Universe By Fitness,-22.838366075193868,-43.280291839320284,Gym / Fitness Center
347,Penha,-22.837928976234483,-43.27600336297336,Parque De Diversões Shangai,-22.84207668296172,-43.277086897853515,Theme Park
348,Penha,-22.837928976234483,-43.27600336297336,Supermercado Super Prix,-22.83992492625014,-43.278423733553026,Supermarket
349,Penha,-22.837928976234483,-43.27600336297336,Largo da Penha,-22.84144314258949,-43.27847934974118,Plaza
350,Penha,-22.837928976234483,-43.27600336297336,Cachorro Quente da Lobo Junior,-22.83383074320158,-43.278016776795695,Food Truck
351,Zumbi,-22.821115765672378,-43.17601439632832,Colônia Z-10,-22.823675798533905,-43.1777286529541,Plaza
352,Zumbi,-22.821115765672378,-43.17601439632832,Praia do Zumbi,-22.820514059632526,-43.17559358982844,Beach
353,Zumbi,-22.821115765672378,-43.17601439632832,ACM - Associação Cristã de Moços,-22.82446894400211,-43.17306707850326,Sports Club
354,Zumbi,-22.821115765672378,-43.17601439632832,Biroska do Camarão,-22.823426550342024,-43.178457486009606,Bar
355,Zumbi,-22.821115765672378,-43.17601439632832,Padaria Spider,-22.821098585465435,-43.17700304606177,Bakery
356,Zumbi,-22.821115765672378,-43.17601439632832,Jequiá Iate Clube,-22.820625412638112,-43.17440496637851,Athletics & Sports
357,Zumbi,-22.821115765672378,-43.17601439632832,Yaki-Koni - Culinária Oriental,-22.821550894283504,-43.176657780228176,Japanese Restaurant
358,Zumbi,-22.821115765672378,-43.17601439632832,Mouras Bar,-22.819222115349312,-43.177830340817586,Bakery
359,Zumbi,-22.821115765672378,-43.17601439632832,Crepes & Papos,-22.823685,-43.175255,Burger Joint
360,Zumbi,-22.821115765672378,-43.17601439632832,Quiosque do mineiro,-22.821401405686284,-43.17150464765871,Sandwich Place
361,Zumbi,-22.821115765672378,-43.17601439632832,ACM - Musculação,-22.824478720017,-43.17299046562909,Gym / Fitness Center
362,Ribeira,-22.82340875686182,-43.16920894177059,Bom Demais Bar e Restaurante,-22.823231249114546,-43.17128640069064,Food
363,Ribeira,-22.82340875686182,-43.16920894177059,Feira Livre da Ribeira,-22.825322199867763,-43.169468145886725,Farmers Market
364,Ribeira,-22.82340875686182,-43.16920894177059,Galeto da Ribeira,-22.824808033258538,-43.16968784950741,Fried Chicken Joint
365,Ribeira,-22.82340875686182,-43.16920894177059,Pontapé Beach,-22.825212162667754,-43.16897836149265,Dive Bar
366,Ribeira,-22.82340875686182,-43.16920894177059,Planeta da Ribeira,-22.824732400500828,-43.169451702197236,Bar
367,Ribeira,-22.82340875686182,-43.16920894177059,Praia da Engenhoca,-22.82245036195632,-43.17038306600493,Beach
368,Ribeira,-22.82340875686182,-43.16920894177059,Boteco do Carlito's,-22.82478621702019,-43.169399603841576,Dive Bar
369,Ribeira,-22.82340875686182,-43.16920894177059,Praça Iaiá Garcia,-22.824974260801852,-43.169709393670146,Plaza
370,Ribeira,-22.82340875686182,-43.16920894177059,Sushi Barcellos,-22.825035290815496,-43.17077582741981,Japanese Restaurant
371,Ribeira,-22.82340875686182,-43.16920894177059,ACM - Associação Cristã de Moços,-22.82446894400211,-43.17306707850326,Sports Club
372,Ribeira,-22.82340875686182,-43.16920894177059,Praia da Ribeira,-22.82440150208962,-43.168564639025675,Beach
373,Ribeira,-22.82340875686182,-43.16920894177059,Padaria da Ribeira,-22.824560593698774,-43.16943184544698,Bakery
374,Ribeira,-22.82340875686182,-43.16920894177059,Pizzarola,-22.825813345498617,-43.169639287537436,Pizza Place
375,Ribeira,-22.82340875686182,-43.16920894177059,Temakeria Top Koni,-22.82565188618652,-43.16901194467509,Japanese Restaurant
376,Ribeira,-22.82340875686182,-43.16920894177059,Zero Grau Chopperia,-22.825087692555165,-43.17097417284587,Bar
377,Ribeira,-22.82340875686182,-43.16920894177059,Nobre Boutique de Carnes,-22.82503798220808,-43.17093550712501,Steakhouse
378,Ribeira,-22.82340875686182,-43.16920894177059,Rock Inside,-22.824922757582726,-43.170184969818756,Rock Club
379,Ribeira,-22.82340875686182,-43.16920894177059,Alemão da Ribeira,-22.82572126960817,-43.16966570755618,German Restaurant
380,Ribeira,-22.82340875686182,-43.16920894177059,Hip Hang Rock & Bar,-22.823118,-43.17112,Beer Bar
381,Ribeira,-22.82340875686182,-43.16920894177059,Mercado Maravilha Da Ribeira,-22.824021301687434,-43.169468145886725,Bakery
382,Ribeira,-22.82340875686182,-43.16920894177059,Só No Sapatinho,-22.822224545415718,-43.17010201014291,Food Truck
383,Ribeira,-22.82340875686182,-43.16920894177059,Quiosque do mineiro,-22.821401405686284,-43.17150464765871,Sandwich Place
384,Parque Anchieta,-22.836255172680822,-43.41524515527519,Academia Cia Saúde,-22.835282389390244,-43.4114168019962,Gym
385,Parque Anchieta,-22.836255172680822,-43.41524515527519,Silvestre Filippi,-22.836143493652344,-43.413429260253906,Health & Beauty Service
386,Parque Anchieta,-22.836255172680822,-43.41524515527519,FestFood Nilopolis,-22.83615990609004,-43.41378212780714,Food Truck
387,Parque Anchieta,-22.836255172680822,-43.41524515527519,Academia do Corpo,-22.836612748088054,-43.41212061469822,Gym / Fitness Center
388,Parque Anchieta,-22.836255172680822,-43.41524515527519,Ótica Lumiere,-22.833401366959148,-43.41780123997132,Optical Shop
389,Parque Anchieta,-22.836255172680822,-43.41524515527519,Churrasquinho do Jorge,-22.83479221435488,-43.41147547917476,Food Truck
390,Parque Anchieta,-22.836255172680822,-43.41524515527519,Brutu's lanches,-22.832669434914983,-43.413913550713566,Burger Joint
391,Parque Anchieta,-22.836255172680822,-43.41524515527519,Bia Lanches,-22.832531589496107,-43.41683709576667,Food Truck
392,Parque Anchieta,-22.836255172680822,-43.41524515527519,Ponto Do Dilma,-22.83294,-43.412247,Bus Stop
393,Vista Alegre,-22.830153416187446,-43.31499885469241,Lona Cultural João Bosco,-22.832276459529627,-43.312360716806424,Arts & Entertainment
394,Vista Alegre,-22.830153416187446,-43.31499885469241,Bar do Adão,-22.831366948314134,-43.31887734453334,Bar
395,Vista Alegre,-22.830153416187446,-43.31499885469241,Choperia Jacques,-22.830430576346266,-43.31908856922328,Brewery
396,Vista Alegre,-22.830153416187446,-43.31499885469241,Tablô Café & Bistrô,-22.83147571358895,-43.318829858248925,Bistro
397,Vista Alegre,-22.830153416187446,-43.31499885469241,Frida Gastrô,-22.82932161584471,-43.31952899002488,Bistro
398,Vista Alegre,-22.830153416187446,-43.31499885469241,Gelateria Bizzi,-22.832696466531516,-43.318841671258454,Ice Cream Shop
399,Vista Alegre,-22.830153416187446,-43.31499885469241,Sushi da Praça,-22.83162649707059,-43.318902564698526,Japanese Restaurant
400,Vista Alegre,-22.830153416187446,-43.31499885469241,Campo De Vista Alegre,-22.830844485177202,-43.316930423280375,Soccer Field
401,Vista Alegre,-22.830153416187446,-43.31499885469241,Di Prima Steakhouse,-22.83153421640541,-43.318917452558395,Steakhouse
402,Vista Alegre,-22.830153416187446,-43.31499885469241,Toca do Pastel,-22.829820906168315,-43.31910271240282,Pastelaria
403,Vista Alegre,-22.830153416187446,-43.31499885469241,Trio Bar,-22.829333949675135,-43.31935034594602,Bar
404,Vista Alegre,-22.830153416187446,-43.31499885469241,TK burguer house,-22.829026208099275,-43.319290310190304,Burger Joint
405,Vista Alegre,-22.830153416187446,-43.31499885469241,Espetto Carioca,-22.831883959518578,-43.31899862615278,BBQ Joint
406,Vista Alegre,-22.830153416187446,-43.31499885469241,Ravi's Lanches - Vista Alegre,-22.830484945992872,-43.31548767631911,Diner
407,Vista Alegre,-22.830153416187446,-43.31499885469241,Academia New Corpore Center II,-22.82645248298197,-43.315902699043896,Gymnastics Gym
408,Vista Alegre,-22.830153416187446,-43.31499885469241,Panificação Rio 2004,-22.82643040584915,-43.31561284682642,Bakery
409,Vista Alegre,-22.830153416187446,-43.31499885469241,Brasil 500,-22.83104563397012,-43.318778641238744,Pizza Place
410,Vista Alegre,-22.830153416187446,-43.31499885469241,Los Cabrones,-22.83084622780312,-43.31900755435106,Mexican Restaurant
411,Vista Alegre,-22.830153416187446,-43.31499885469241,Bendito Jamón,-22.829261927257036,-43.31919362952145,Steakhouse
412,Vista Alegre,-22.830153416187446,-43.31499885469241,Hong Kong Yakisobas,-22.8276971665624,-43.3179569472536,Asian Restaurant
413,Vista Alegre,-22.830153416187446,-43.31499885469241,Quintô,-22.83198373908157,-43.31890606178644,Snack Place
414,Vista Alegre,-22.830153416187446,-43.31499885469241,Panificadora São Félix,-22.833197057250228,-43.31838613683919,Bakery
415,Ricardo de Albuquerque,-22.837383692118987,-43.39706304589202,Palácio Grill,-22.83666059984197,-43.397932212018205,BBQ Joint
416,Ricardo de Albuquerque,-22.837383692118987,-43.39706304589202,Gres Império Ricardense,-22.838049,-43.396805,Samba School
417,Ricardo de Albuquerque,-22.837383692118987,-43.39706304589202,Frangolino conveniência e Restaurante,-22.836201069121422,-43.39637605917024,Restaurant
418,Ricardo de Albuquerque,-22.837383692118987,-43.39706304589202,Hortifruiti Ricardense,-22.83761112331584,-43.39869753390887,Fruit & Vegetable Store
419,Ricardo de Albuquerque,-22.837383692118987,-43.39706304589202,Bueira,-22.83773,-43.39674,Pedestrian Plaza
420,Ricardo de Albuquerque,-22.837383692118987,-43.39706304589202,Açaí do Abençoaduuu,-22.836727954568417,-43.395007403325586,Snack Place
421,Ricardo de Albuquerque,-22.837383692118987,-43.39706304589202,Mmii Fernandes Estética,-22.836629,-43.394959,Arts & Crafts Store
422,Ricardo de Albuquerque,-22.837383692118987,-43.39706304589202,Padaria Rosquinha de Ouro,-22.834959805250136,-43.396889335723586,Bakery
423,Ricardo de Albuquerque,-22.837383692118987,-43.39706304589202,Praça Do Ré,-22.83596,-43.394535,Plaza
424,Ricardo de Albuquerque,-22.837383692118987,-43.39706304589202,Point da Familia sucos e lanches,-22.83672727677515,-43.393932036776974,Juice Bar
425,Ricardo de Albuquerque,-22.837383692118987,-43.39706304589202,Bar do KK,-22.839777660153,-43.39910531928511,Snack Place
426,Ricardo de Albuquerque,-22.837383692118987,-43.39706304589202,Pop's Pizzaria,-22.835058,-43.399326,Pizza Place
427,Ricardo de Albuquerque,-22.837383692118987,-43.39706304589202,Atlético Clube Nacional,-22.839117426118364,-43.39401994203056,Soccer Field
428,Ricardo de Albuquerque,-22.837383692118987,-43.39706304589202,Estacao Ricardo Albuquerque,-22.83917925722632,-43.39404741237085,Light Rail Station
429,Ricardo de Albuquerque,-22.837383692118987,-43.39706304589202,Ricardo Country Club,-22.839145188036344,-43.393988547319786,Sports Club
430,Ricardo de Albuquerque,-22.837383692118987,-43.39706304589202,Linha 624 - Mariópolis / Praça da Bandeira,-22.834662866736167,-43.39916840807679,Bus Line
431,Ricardo de Albuquerque,-22.837383692118987,-43.39706304589202,Empório Do Pão,-22.838408,-43.40058,Bakery
432,Ricardo de Albuquerque,-22.837383692118987,-43.39706304589202,Grêmio Social Ricardense,-22.839412795378447,-43.40018482883634,Sports Club
433,Ricardo de Albuquerque,-22.837383692118987,-43.39706304589202,Drogaria Exata,-22.840529036832063,-43.39964415459624,Pharmacy
434,Ricardo de Albuquerque,-22.837383692118987,-43.39706304589202,Padaria Mimosa - Anchieta,-22.834251307808696,-43.39360709991148,Bakery
435,Colégio,-22.839360329577957,-43.33611132701016,Cacau Show,-22.841048553431214,-43.33782314729529,Chocolate Shop
436,Colégio,-22.839360329577957,-43.33611132701016,Colégio,-22.838732,-43.338024,Train Station
437,Colégio,-22.839360329577957,-43.33611132701016,Metrô Pavuna x Botafogo,-22.839284075608017,-43.33361762292854,Metro Station
438,Colégio,-22.839360329577957,-43.33611132701016,Shopping da Estação,-22.84254173990931,-43.33548469313775,Clothing Store
439,Colégio,-22.839360329577957,-43.33611132701016,Studio de Dança Ra'idah,-22.842905835477556,-43.33540925731018,Dance Studio
440,Colégio,-22.839360329577957,-43.33611132701016,Trópicos Pescados,-22.836000230082455,-43.33795515354005,Seafood Restaurant
441,Colégio,-22.839360329577957,-43.33611132701016,MetrôRio - Estação Colégio,-22.84297736697724,-43.33428382873535,Metro Station
442,Colégio,-22.839360329577957,-43.33611132701016,Colégio Futebol Clube,-22.843518527128875,-43.33558841721467,Soccer Field
443,Colégio,-22.839360329577957,-43.33611132701016,Lanche do Thiago,-22.842838287353516,-43.33329391479492,American Restaurant
444,Honório Gurgel,-22.847124826956204,-43.356579827864664,Academia Evolution Fitness,-22.84550394485989,-43.3562144357617,Gym / Fitness Center
445,Honório Gurgel,-22.847124826956204,-43.356579827864664,"Churrasquinho de R$ 1,00",-22.84900839256978,-43.356512701277865,Food Truck
446,Honório Gurgel,-22.847124826956204,-43.356579827864664,Supermercado Premium Rocha Miranda,-22.847170065621942,-43.353373910726184,Convenience Store
447,Honório Gurgel,-22.847124826956204,-43.356579827864664,SuperVia - Estação Honório Gurgel,-22.85008590244351,-43.35642315893758,Train Station
448,Olaria,-22.847586678286845,-43.26994047983021,Botequim Rio Antigo,-22.846684426258488,-43.267729022310434,Bar
449,Olaria,-22.847586678286845,-43.26994047983021,Sorveteria Wesley,-22.849298239584765,-43.26881252457088,Ice Cream Shop
450,Olaria,-22.847586678286845,-43.26994047983021,Academia Tribe Fitness,-22.8499116704163,-43.26958109634015,Gym / Fitness Center
451,Olaria,-22.847586678286845,-43.26994047983021,Estação Sabor,-22.850786706533437,-43.26978375584979,Bakery
452,Olaria,-22.847586678286845,-43.26994047983021,Praça de Olaria,-22.850368547676396,-43.27359851800681,Plaza
453,Olaria,-22.847586678286845,-43.26994047983021,Estação Olaria Sinuca & Bar,-22.847175792194,-43.265705103522585,Pool Hall
454,Olaria,-22.847586678286845,-43.26994047983021,Subway,-22.847025941510633,-43.265526696481835,Sandwich Place
455,Olaria,-22.847586678286845,-43.26994047983021,Bharmacia,-22.844939823898585,-43.266109297884164,Bar
456,Olaria,-22.847586678286845,-43.26994047983021,Drogarias Mundial,-22.849447969671303,-43.27122394149916,Pharmacy
457,Olaria,-22.847586678286845,-43.26994047983021,Espaço Haru Mix,-22.847254985421337,-43.268220813668854,Asian Restaurant
458,Olaria,-22.847586678286845,-43.26994047983021,Bob's,-22.849679569313956,-43.27155025089539,Fast Food Restaurant
459,Olaria,-22.847586678286845,-43.26994047983021,WM Academia,-22.85088217897778,-43.27025972914626,Gym
460,Olaria,-22.847586678286845,-43.26994047983021,Café do Fórum,-22.84421241276687,-43.26751805506269,Café
461,Olaria,-22.847586678286845,-43.26994047983021,Restaurante Sabor Do Rio,-22.84958911739134,-43.27142538770905,Brazilian Restaurant
462,Olaria,-22.847586678286845,-43.26994047983021,Vuco Vuco Bar,-22.84951554421893,-43.27124403762379,Bar
463,Olaria,-22.847586678286845,-43.26994047983021,Supermarket,-22.849323499514636,-43.27241836160843,Grocery Store
464,Olaria,-22.847586678286845,-43.26994047983021,Academia Marretão Fitness,-22.85012741003644,-43.26941100521264,Gymnastics Gym
465,Olaria,-22.847586678286845,-43.26994047983021,Academia Pipow Fitness,-22.84965688114983,-43.271659220215,Gym
466,Olaria,-22.847586678286845,-43.26994047983021,Supermercado Supermarket,-22.849654851749634,-43.27185187666766,Big Box Store
467,Olaria,-22.847586678286845,-43.26994047983021,J.M.A Mercado,-22.850697146656913,-43.269859226143645,Grocery Store
468,Olaria,-22.847586678286845,-43.26994047983021,Padaria Requinte,-22.85109335844535,-43.270701577733725,Bakery
469,Olaria,-22.847586678286845,-43.26994047983021,Point Do Frango Na Brasa,-22.849249492343894,-43.27365527545329,Fried Chicken Joint
470,Olaria,-22.847586678286845,-43.26994047983021,Bobs,-22.8499686254459,-43.2738015021067,Burger Joint
471,Olaria,-22.847586678286845,-43.26994047983021,BRT - Estação Olaria (Cacique de Ramos),-22.848384747596896,-43.265317954335806,Bus Station
472,Vila da Penha,-22.843401752440275,-43.31010979221295,Shimaki Culinária Japonesa,-22.845350778094815,-43.31084860354114,Japanese Restaurant
473,Vila da Penha,-22.843401752440275,-43.31010979221295,Quiosque do Tomaz,-22.841772137909146,-43.31200450971645,Food Truck
474,Vila da Penha,-22.843401752440275,-43.31010979221295,Frango & Cia,-22.844083324149626,-43.30944707086884,Brazilian Restaurant
475,Vila da Penha,-22.843401752440275,-43.31010979221295,Instituto Diana Melo,-22.845426917925423,-43.31103202220905,Spa
476,Vila da Penha,-22.843401752440275,-43.31010979221295,O Original do Brás,-22.841832656601042,-43.30908463203362,Bar
477,Vila da Penha,-22.843401752440275,-43.31010979221295,Centro de Artes Marciais Golden Cage,-22.845466242785744,-43.31254360854817,Martial Arts School
478,Vila da Penha,-22.843401752440275,-43.31010979221295,Centro de Dança Alex de Carvalho,-22.844831662406392,-43.31244545524879,Dance Studio
479,Vila da Penha,-22.843401752440275,-43.31010979221295,Belo Brasa,-22.844080390351465,-43.30937238199232,Restaurant
480,Vila da Penha,-22.843401752440275,-43.31010979221295,Othuki Sushi,-22.8459135014007,-43.307591924720136,Sushi Restaurant
481,Vila da Penha,-22.843401752440275,-43.31010979221295,Praça da Cetel,-22.840851002927263,-43.31007669971296,Plaza
482,Vila da Penha,-22.843401752440275,-43.31010979221295,Academia Fórmula,-22.84016164619411,-43.30935240042075,Gymnastics Gym
483,Vila da Penha,-22.843401752440275,-43.31010979221295,DBK Hamburgueria Gourmet,-22.84000020037457,-43.3126531734985,Burger Joint
484,Vila da Penha,-22.843401752440275,-43.31010979221295,Maná De Deus,-22.84502694382863,-43.31048482839753,Snack Place
485,Vila da Penha,-22.843401752440275,-43.31010979221295,Boa Boca,-22.84574695078939,-43.31037023947953,Pizza Place
486,Vila da Penha,-22.843401752440275,-43.31010979221295,Academia Body Shape,-22.845605814169204,-43.31130044542185,Gym
487,Vila da Penha,-22.843401752440275,-43.31010979221295,Boteco do Helinho,-22.844666161247975,-43.30901804786918,Bar
488,Vila da Penha,-22.843401752440275,-43.31010979221295,Cucamonga,-22.845007260467344,-43.308606795010235,Mexican Restaurant
489,Vila da Penha,-22.843401752440275,-43.31010979221295,Restaurante Carne de Sol e Cia.,-22.841788073135323,-43.312179680916636,Brazilian Restaurant
490,Vila da Penha,-22.843401752440275,-43.31010979221295,Roxo por Pet,-22.846592153090345,-43.31150977269205,Pet Store
491,Vila da Penha,-22.843401752440275,-43.31010979221295,Toca do Pastel da Tia,-22.841402498793073,-43.306344814559644,Pastelaria
492,Vila da Penha,-22.843401752440275,-43.31010979221295,Pepito's Bar,-22.843323115936872,-43.307291274161514,Bar
493,Vila da Penha,-22.843401752440275,-43.31010979221295,Pello Menos,-22.8401191037,-43.31280987117767,Health & Beauty Service
494,Vila da Penha,-22.843401752440275,-43.31010979221295,GG Pizza!,-22.840496319778175,-43.30651081357572,Pizza Place
495,Vila da Penha,-22.843401752440275,-43.31010979221295,Casa Vip Festas,-22.84534897964161,-43.31251629620339,Nightclub
496,Vila da Penha,-22.843401752440275,-43.31010979221295,Artur O Rei Do Peixe,-22.843008924438536,-43.31040083167669,Seafood Restaurant
497,Vila da Penha,-22.843401752440275,-43.31010979221295,Largo do Bicão,-22.839556926461036,-43.31132998122194,Plaza
498,Vila da Penha,-22.843401752440275,-43.31010979221295,Caprixo e Caprixado,-22.845780103819727,-43.310477309350595,Brazilian Restaurant
499,Vila da Penha,-22.843401752440275,-43.31010979221295,Pizzaria O Forno Jr.,-22.84515607284921,-43.31092856168055,Pizza Place
500,Vila da Penha,-22.843401752440275,-43.31010979221295,Sussuca Festas,-22.843210511662203,-43.31403783692694,Music Venue
501,Vila da Penha,-22.843401752440275,-43.31010979221295,Flórida do Bicão,-22.839851769896285,-43.31061186672413,Snack Place
502,Maré,-22.8597971209532,-43.24237177743333,Mouton Rouge,-22.86170300812173,-43.24614906231506,Brazilian Restaurant
503,Maré,-22.8597971209532,-43.24237177743333,Restaurante Verdinho,-22.862601051016497,-43.24485989446352,Brazilian Restaurant
504,Maré,-22.8597971209532,-43.24237177743333,restaurante 3° andar - Gastroservice,-22.861222467193265,-43.245535375460186,Restaurant
505,Maré,-22.8597971209532,-43.24237177743333,Super Market,-22.863179397284828,-43.2427495479899,Market
506,Maré,-22.8597971209532,-43.24237177743333,Garota da Teixeira,-22.855440438576277,-43.24302823217479,BBQ Joint
507,Vila Militar,-22.861488146458477,-43.40327197639196,Complexo Olímpico de Deodoro,-22.861050328021374,-43.402626514434814,Athletics & Sports
508,Vila Militar,-22.861488146458477,-43.40327197639196,Centro Olímpico de Hóquei,-22.860802,-43.40261,Hockey Arena
509,Vila Militar,-22.861488146458477,-43.40327197639196,Estádio de Deodoro,-22.86089215060174,-43.406628370285034,Rugby Stadium
510,Vila Militar,-22.861488146458477,-43.40327197639196,Arena da Juventude,-22.85921064923103,-43.40370389943237,Stadium
511,Vila Militar,-22.861488146458477,-43.40327197639196,CTFJERJ - Centro de Treinamento de Judô,-22.861449440240705,-43.402150869806206,Martial Arts School
512,Vila Militar,-22.861488146458477,-43.40327197639196,SuperVia - Estação Vila Militar,-22.862488499712704,-43.40035028262244,Train Station
513,Vila Militar,-22.861488146458477,-43.40327197639196,Hockey Vila Militar,-22.862114145614857,-43.402921116017865,Hockey Field
514,Vila Militar,-22.861488146458477,-43.40327197639196,Complexo Olímpico de Deodoro (Centro Aquático de Deodoro),-22.861725051509328,-43.40354919433594,Water Park
515,Vila Militar,-22.861488146458477,-43.40327197639196,Restaurante do Círculo Militar da Vila Militar,-22.862237473926022,-43.40314711700088,Brazilian Restaurant
516,Vila Militar,-22.861488146458477,-43.40327197639196,BRT - Estação Vila Militar,-22.862505,-43.40156,Bus Station
517,Vila Militar,-22.861488146458477,-43.40327197639196,Academia ProLife,-22.86387,-43.39928,Gym / Fitness Center
518,Vila Militar,-22.861488146458477,-43.40327197639196,Polo de Treinamento - BemViver Caminhadas e Corridas - Vila Militar,-22.86526173410748,-43.40080261230469,Athletics & Sports
519,Cidade Universitária,-22.85411723170148,-43.22822123828973,BR Mania,-22.853581473558116,-43.23050171544109,Convenience Store
520,Rocha Miranda,-22.849952583455032,-43.34645783794322,Praça Santa Bárbara,-22.85171786634818,-43.34620485157796,Plaza
521,Rocha Miranda,-22.849952583455032,-43.34645783794322,Julio's Batata,-22.851194499160005,-43.344685605295325,Burger Joint
522,Rocha Miranda,-22.849952583455032,-43.34645783794322,Chitão,-22.853398284393972,-43.34955096244812,Burger Joint
523,Rocha Miranda,-22.849952583455032,-43.34645783794322,Academia Tônus (Villas Boas),-22.850638693004797,-43.350509202282595,Gym / Fitness Center
524,Rocha Miranda,-22.849952583455032,-43.34645783794322,Bella Roma,-22.85312290828911,-43.34983101373216,Italian Restaurant
525,Rocha Miranda,-22.849952583455032,-43.34645783794322,Bolo de Que?,-22.8523734542685,-43.3472135782822,Café
526,Rocha Miranda,-22.849952583455032,-43.34645783794322,Bar e Mercearia Pilão Arcado - Padaria Cedae,-22.848964748337224,-43.3434711310495,Café
527,Rocha Miranda,-22.849952583455032,-43.34645783794322,ICE MIX,-22.84689714018902,-43.34462101526088,Ice Cream Shop
528,Rocha Miranda,-22.849952583455032,-43.34645783794322,Mercado Bom Market,-22.848418440234255,-43.34228759345019,Grocery Store
529,Rocha Miranda,-22.849952583455032,-43.34645783794322,Drogaria Destaque,-22.848041506871006,-43.34244787237502,Pharmacy
530,Rocha Miranda,-22.849952583455032,-43.34645783794322,Supermercado Premium,-22.846178672361347,-43.34897861051842,Convenience Store
531,Ramos,-22.852077309451268,-43.256220518721875,Academia Top Fit,-22.850913649497336,-43.254810316918366,Gym
532,Ramos,-22.852077309451268,-43.256220518721875,Adega do Adir,-22.852983668260357,-43.25635603180971,Wine Shop
533,Ramos,-22.852077309451268,-43.256220518721875,Bob's,-22.852403960360633,-43.254372939574345,Burger Joint
534,Ramos,-22.852077309451268,-43.256220518721875,Padaria Aurora,-22.850243892930852,-43.257912449703234,Bakery
535,Ramos,-22.852077309451268,-43.256220518721875,Academia R2,-22.854275738882716,-43.26047880579589,Gym
536,Ramos,-22.852077309451268,-43.256220518721875,Supermercados Campeão,-22.85190804442307,-43.255477696140844,Grocery Store
537,Ramos,-22.852077309451268,-43.256220518721875,SuperVia - Estação Ramos,-22.854853334120417,-43.25968034584618,Train Station
538,Realengo,-22.881002860857613,-43.433711437276976,Xodó de Realengo,-22.87790336787755,-43.434734244563195,Restaurant
539,Realengo,-22.881002860857613,-43.433711437276976,Fred's Burguer,-22.879276724110003,-43.436669791191726,Burger Joint
540,Realengo,-22.881002860857613,-43.433711437276976,Armazém Real,-22.87818258805786,-43.43276794839078,Restaurant
541,Realengo,-22.881002860857613,-43.433711437276976,Chatuba Materiais de Construção,-22.878029536530587,-43.435998979843525,Furniture / Home Store
542,Realengo,-22.881002860857613,-43.433711437276976,Cacau Show,-22.87791119054201,-43.435452308061755,Chocolate Shop
543,Realengo,-22.881002860857613,-43.433711437276976,Padaria Do Filé,-22.878201634540797,-43.43486371650856,Restaurant
544,Realengo,-22.881002860857613,-43.433711437276976,Domino's Pizza,-22.878002,-43.437122,Pizza Place
545,Realengo,-22.881002860857613,-43.433711437276976,Academia BioFisio,-22.88335011467175,-43.43682133382182,Gym
546,Realengo,-22.881002860857613,-43.433711437276976,Praça Padre Miguel,-22.87825168815175,-43.43406661348127,Plaza
547,Realengo,-22.881002860857613,-43.433711437276976,Academia Neon,-22.879881447046266,-43.43727140946749,Gym
548,Realengo,-22.881002860857613,-43.433711437276976,Rua Nepomuceno,-22.88183279388021,-43.436365710156046,Beer Bar
549,Realengo,-22.881002860857613,-43.433711437276976,Bomba Lanches Burger,-22.881831606763907,-43.43636522790274,Burger Joint
550,Realengo,-22.881002860857613,-43.433711437276976,bar da tia,-22.88183797097046,-43.43637221441308,Speakeasy
551,Realengo,-22.881002860857613,-43.433711437276976,Drogarias Pacheco,-22.87793933403199,-43.4338980422611,Pharmacy
552,Realengo,-22.881002860857613,-43.433711437276976,Restaurante Do Filé!,-22.87810709416565,-43.43497945603871,Restaurant
553,Realengo,-22.881002860857613,-43.433711437276976,Academia Arnô,-22.877194592355966,-43.43294380894353,Gym
554,Vila Kosmos,-22.854019796418907,-43.30345589946461,Mercado VITORIA Do Ipase,-22.853163,-43.302456,Bakery
555,Vila Kosmos,-22.854019796418907,-43.30345589946461,Bonde do Yakisoba,-22.850690609081486,-43.30518776130299,Chinese Restaurant
556,Vila Kosmos,-22.854019796418907,-43.30345589946461,Trailer da Cris,-22.85061498147141,-43.305112570072524,Food Truck
557,Vila Kosmos,-22.854019796418907,-43.30345589946461,Mercado Bom Desconto,-22.85466376836665,-43.30744028091431,Grocery Store
558,Vila Kosmos,-22.854019796418907,-43.30345589946461,Companhia do Corpo,-22.85019539764988,-43.30369255217295,Gym / Fitness Center
559,Marechal Hermes,-22.85929980179739,-43.37069524613886,Academia Físico Carioca,-22.858465597653606,-43.370271199375885,Gym
560,Marechal Hermes,-22.85929980179739,-43.37069524613886,Boteco 05,-22.86142287185822,-43.37064825194713,Bar
561,Marechal Hermes,-22.85929980179739,-43.37069524613886,Pizzaria e Pastelaria Lux,-22.86180721549423,-43.371414875183945,Pizza Place
562,Marechal Hermes,-22.85929980179739,-43.37069524613886,Praca de Marechal,-22.8613548277204,-43.37111066651621,Plaza
563,Marechal Hermes,-22.85929980179739,-43.37069524613886,Subway,-22.86179393530635,-43.37105884140167,Sandwich Place
564,Marechal Hermes,-22.85929980179739,-43.37069524613886,Padaria e Confeitaria Nova Lux,-22.861854065802596,-43.37147791648418,Bakery
565,Marechal Hermes,-22.85929980179739,-43.37069524613886,Espaço Mix Gourmet,-22.860913500753934,-43.36998254112415,Brazilian Restaurant
566,Marechal Hermes,-22.85929980179739,-43.37069524613886,Monte Costeira - Bar E Restaurante,-22.860428269095177,-43.3701942962645,Food
567,Marechal Hermes,-22.85929980179739,-43.37069524613886,A Garotinha,-22.85981841524465,-43.37020436003265,Restaurant
568,Marechal Hermes,-22.85929980179739,-43.37069524613886,Ravi's Marechal Hermes,-22.857226692854216,-43.370178012967926,Snack Place
569,Marechal Hermes,-22.85929980179739,-43.37069524613886,SuperVia - Estação Marechal Hermes,-22.860571784212645,-43.37095990239705,Train Station
570,Marechal Hermes,-22.85929980179739,-43.37069524613886,Delícias de Marechal,-22.860910201253255,-43.37035212991912,Snack Place
571,Marechal Hermes,-22.85929980179739,-43.37069524613886,Infinity Sports,-22.8601309191947,-43.370182514190674,Sporting Goods Shop
572,Marechal Hermes,-22.85929980179739,-43.37069524613886,Padaria e Conf. Central de Marechal Hermes,-22.858826749826488,-43.37025790096471,Bakery
573,Marechal Hermes,-22.85929980179739,-43.37069524613886,Pizzaria Paladar,-22.860284001338965,-43.37003702104826,Pizza Place
574,Marechal Hermes,-22.85929980179739,-43.37069524613886,Restaurante Nova Lux,-22.861268186618133,-43.37097785650479,Brazilian Restaurant
575,Marechal Hermes,-22.85929980179739,-43.37069524613886,Yakisoba - Estação Marechal Hermes,-22.861314,-43.370694,Japanese Restaurant
576,Marechal Hermes,-22.85929980179739,-43.37069524613886,Frango Carioca,-22.861633,-43.37015,Fried Chicken Joint
577,Marechal Hermes,-22.85929980179739,-43.37069524613886,Renato's Bar,-22.860692272098223,-43.368552326112415,Brazilian Restaurant
578,Marechal Hermes,-22.85929980179739,-43.37069524613886,Drogarias Pacheco,-22.858904053609916,-43.37350869699683,Pharmacy
579,Marechal Hermes,-22.85929980179739,-43.37069524613886,"Crep's, Batata e Sucos De Marechal",-22.860207905094008,-43.373546386142756,Snack Place
580,Marechal Hermes,-22.85929980179739,-43.37069524613886,Garatuja Gourmet Self Service.,-22.86256197440571,-43.37215215367063,Brazilian Restaurant
581,Marechal Hermes,-22.85929980179739,-43.37069524613886,Praca Rua Sirici,-22.857467,-43.366616,Plaza
582,Vicente de Carvalho,-22.857181580425582,-43.3156122450666,Adega D'Ouro,-22.853693856296555,-43.314341762706576,Portuguese Restaurant
583,Vicente de Carvalho,-22.857181580425582,-43.3156122450666,Praça de Vicente de Carvalho,-22.853540584650247,-43.314645932348945,Plaza
584,Vicente de Carvalho,-22.857181580425582,-43.3156122450666,Thiago Studio Body Care,-22.856279823391766,-43.31459639633735,Spa
585,Vicente de Carvalho,-22.857181580425582,-43.3156122450666,Centro de Depilação e Estética,-22.85347110565036,-43.313391273991506,Spa
586,Paciência,-22.893465342960663,-43.63870060500532,Dr Modas,-22.892672,-43.639275,Women's Store
587,Paciência,-22.893465342960663,-43.63870060500532,Cantina do Edílio,-22.894326,-43.636527,Sandwich Place
588,Paciência,-22.893465342960663,-43.63870060500532,Nextel Cpo.Grande,-22.890496,-43.637672,Electronics Store
589,Paciência,-22.893465342960663,-43.63870060500532,Dom Pepi,-22.891859993626067,-43.643194252197034,Convenience Store
590,Engenho da Rainha,-22.863038063789766,-43.294214108121565,Verão Vermelho Panificadora,-22.865466170064465,-43.29601743460066,Bakery
591,Engenho da Rainha,-22.863038063789766,-43.294214108121565,G.R.E.S Boêmios de Inhaúma,-22.865539186555665,-43.296035083528366,Music Venue
592,Engenho da Rainha,-22.863038063789766,-43.294214108121565,Dona Coxinha,-22.865491355061714,-43.29718637359754,Food & Drink Shop
593,Engenho da Rainha,-22.863038063789766,-43.294214108121565,Quiosque Do Macarrão,-22.866697,-43.296604,Bar
594,Turiaçú,-22.861711084029448,-43.3420966397662,Academia Damitex,-22.85950841799902,-43.3424958108545,Athletics & Sports
595,Turiaçú,-22.861711084029448,-43.3420966397662,Skate Park,-22.86396631318024,-43.3449698406683,Skate Park
596,Turiaçú,-22.861711084029448,-43.3420966397662,Casas Bahia,-22.85838922573761,-43.340590490923816,Department Store
597,Turiaçú,-22.861711084029448,-43.3420966397662,Faz Quem Quer : Comunidade,-22.858073905929913,-43.34170304242418,Gun Range
598,Turiaçú,-22.861711084029448,-43.3420966397662,Clínica De Avaliação Detran,-22.861568450927734,-43.33774948120117,Optical Shop
599,Complexo do Alemão,-22.861328822114732,-43.27359961920285,CineCarioca,-22.865045789335134,-43.27297732901178,Movie Theater
600,Complexo do Alemão,-22.861328822114732,-43.27359961920285,Teleférico do Alemão - Estação Itararé,-22.861500051891376,-43.27208791283765,Cable Car
601,Complexo do Alemão,-22.861328822114732,-43.27359961920285,Lanchonete Big Favella - o verdadeiro sabor do complexo do alemão,-22.860670827037463,-43.27204070569257,Burger Joint
602,Complexo do Alemão,-22.861328822114732,-43.27359961920285,Farmácia Nova Itararé,-22.859702346872336,-43.272017102103355,Pharmacy
603,Complexo do Alemão,-22.861328822114732,-43.27359961920285,Experimenta Lanches,-22.863348241741132,-43.27176690337439,Fast Food Restaurant
604,Complexo do Alemão,-22.861328822114732,-43.27359961920285,M&C Fitness,-22.863326894061007,-43.27167720918634,Athletics & Sports
605,Complexo do Alemão,-22.861328822114732,-43.27359961920285,Academia MC Fitness,-22.859442018181216,-43.27065903399368,Gym
606,Vaz Lobo,-22.858494802661696,-43.32839166434661,Praça da Light,-22.855221939579277,-43.326472738945995,Plaza
607,Vaz Lobo,-22.858494802661696,-43.32839166434661,Academia Body Factory,-22.861465542871965,-43.329691886901855,Gym
608,Vaz Lobo,-22.858494802661696,-43.32839166434661,Largo de Vaz Lobo,-22.856378004028112,-43.32919955520582,Plaza
609,Vaz Lobo,-22.858494802661696,-43.32839166434661,Associação Kung Fu Garra de Águia Lily Lau Brasil,-22.856891345730162,-43.32897241624626,Martial Arts School
610,Vaz Lobo,-22.858494802661696,-43.32839166434661,Sorveteria Come Come,-22.859633374780593,-43.32775664378132,Ice Cream Shop
611,Vaz Lobo,-22.858494802661696,-43.32839166434661,Linha 351 - Vaz Lobo / Passeio,-22.856731034162788,-43.32948674030999,Bus Line
612,Vaz Lobo,-22.858494802661696,-43.32839166434661,ACP - Academia Corpo Perfeito,-22.860575,-43.32988,Gymnastics Gym
613,Vaz Lobo,-22.858494802661696,-43.32839166434661,BRT - Estação Vila Queiroz,-22.861453945444328,-43.33033840877351,Bus Station
614,Vaz Lobo,-22.858494802661696,-43.32839166434661,BRT - Estação Vaz Lobo,-22.855209654568192,-43.326476041824925,Bus Station
615,Vaz Lobo,-22.858494802661696,-43.32839166434661,gol de placa,-22.855621872434927,-43.32496972634087,Soccer Field
616,Padre Miguel,-22.879055643595507,-43.449640894087565,Espaço Puro Malte -  Cervejas Especiais,-22.878778590696093,-43.44954502492658,Beer Store
617,Padre Miguel,-22.879055643595507,-43.449640894087565,Bar da Vilma,-22.87950223234758,-43.45136649400599,Bar
618,Padre Miguel,-22.879055643595507,-43.449640894087565,Barril 8000,-22.878412194760116,-43.449488947011446,Restaurant
619,Padre Miguel,-22.879055643595507,-43.449640894087565,Gostinho do Sul Padaria e Confeitaria,-22.878126089296188,-43.447834392073695,Bakery
620,Padre Miguel,-22.879055643595507,-43.449640894087565,Deck Carioca,-22.879029167587237,-43.45083200930449,Bar
621,Padre Miguel,-22.879055643595507,-43.449640894087565,Japinha Carioca Culinária Oriental,-22.87918216723148,-43.45363003523984,Japanese Restaurant
622,Padre Miguel,-22.879055643595507,-43.449640894087565,Mariah Culinária Oriental,-22.878687481635254,-43.4495539514607,Japanese Restaurant
623,Padre Miguel,-22.879055643595507,-43.449640894087565,McDonald's,-22.877054112039673,-43.44647030632446,Fast Food Restaurant
624,Padre Miguel,-22.879055643595507,-43.449640894087565,Centro de Convivência Padre Miguel,-22.87854853021804,-43.44903775023972,Music Venue
625,Padre Miguel,-22.879055643595507,-43.449640894087565,CEZO - Campo Do Marcelino,-22.880052788736446,-43.45396293579303,Soccer Field
626,Padre Miguel,-22.879055643595507,-43.449640894087565,Império D'Itália,-22.879660159662485,-43.454353073319275,Italian Restaurant
627,Padre Miguel,-22.879055643595507,-43.449640894087565,Praça dos Abrolhos,-22.87800704545407,-43.44809910962013,Plaza
628,Padre Miguel,-22.879055643595507,-43.449640894087565,Planeta Japa,-22.881011,-43.451777,Restaurant
629,Padre Miguel,-22.879055643595507,-43.449640894087565,Habeas Corpus Gym Center,-22.881633023772448,-43.45291293990566,Gym / Fitness Center
630,Padre Miguel,-22.879055643595507,-43.449640894087565,Churrascaria e Pizzaria Império D'Italia,-22.879593,-43.454445,Buffet
631,Bento Ribeiro,-22.86704088884522,-43.36067182646321,Academia Aqua & cia,-22.869319220193052,-43.36213071046087,Gym
632,Bento Ribeiro,-22.86704088884522,-43.36067182646321,Subway,-22.86600201969419,-43.363116398619894,Sandwich Place
633,Bento Ribeiro,-22.86704088884522,-43.36067182646321,Churrasco Mania,-22.86742544156876,-43.358042161686804,Food
634,Bento Ribeiro,-22.86704088884522,-43.36067182646321,Clube Quarto Linhas,-22.864462589818242,-43.36449546206422,Basketball Court
635,Bento Ribeiro,-22.86704088884522,-43.36067182646321,Pagode 4 Linhas,-22.864391030009003,-43.36451024792316,Music Venue
636,Bento Ribeiro,-22.86704088884522,-43.36067182646321,SuperVia - Estação Prefeito Bento Ribeiro,-22.864381897143318,-43.36127758026123,Train Station
637,Bento Ribeiro,-22.86704088884522,-43.36067182646321,Academia Personal Fit,-22.863778859528917,-43.36210370063782,Gym
638,Bento Ribeiro,-22.86704088884522,-43.36067182646321,Padaria Delirio dos Pães,-22.86542464487441,-43.36268602257071,Bakery
639,Bento Ribeiro,-22.86704088884522,-43.36067182646321,Galo Mercado,-22.865009231478552,-43.362563506065975,Grocery Store
640,Bento Ribeiro,-22.86704088884522,-43.36067182646321,Feira Livre Sapopemba Bento Ribeiro,-22.866663293486717,-43.36381692994548,Farmers Market
641,Bento Ribeiro,-22.86704088884522,-43.36067182646321,EMPORIO DO BACALHAU,-22.863230369946454,-43.36068802355383,Food Truck
642,Bonsucesso,-22.865931589836674,-43.25380287688809,Academia RS Fitness - By Rio Sport,-22.86687054923095,-43.254332453648175,Gym
643,Bonsucesso,-22.865931589836674,-43.25380287688809,Kukas Lanches,-22.867949482975398,-43.254755418756424,Fast Food Restaurant
644,Bonsucesso,-22.865931589836674,-43.25380287688809,Chapéu de Couro,-22.863898584516242,-43.251516894380664,Northeastern Brazilian Restaurant
645,Bonsucesso,-22.865931589836674,-43.25380287688809,Sorveteria Shabat,-22.866583160789933,-43.253391036297515,Ice Cream Shop
646,Bonsucesso,-22.865931589836674,-43.25380287688809,Domino's Pizza,-22.864257927575142,-43.25343353810552,Pizza Place
647,Bonsucesso,-22.865931589836674,-43.25380287688809,Igreja São Tomé Apóstolo,-22.8646290429334,-43.25142502784729,Church
648,Bonsucesso,-22.865931589836674,-43.25380287688809,Restaurante Bom na Brasa,-22.86554048050299,-43.2541741216159,Brazilian Restaurant
649,Bonsucesso,-22.865931589836674,-43.25380287688809,Academia Rio Planet Fitness,-22.863269013328672,-43.25197239936181,Gym / Fitness Center
650,Bonsucesso,-22.865931589836674,-43.25380287688809,Tia Solange Tortas e Lanches,-22.864315491870332,-43.25373986843455,Dessert Shop
651,Bonsucesso,-22.865931589836674,-43.25380287688809,Bob's,-22.86517282734841,-43.25301914628273,Fast Food Restaurant
652,Bonsucesso,-22.865931589836674,-43.25380287688809,Ferragens Pisa,-22.867555185621857,-43.25234057567631,Department Store
653,Bonsucesso,-22.865931589836674,-43.25380287688809,Báltico Restaurante,-22.865838618466547,-43.2522816075615,Restaurant
654,Bonsucesso,-22.865931589836674,-43.25380287688809,Gourmet de Londres,-22.866733565722868,-43.249871686959196,Buffet
655,Bonsucesso,-22.865931589836674,-43.25380287688809,Sabor BomSucesso Restaurante,-22.865111864634414,-43.25519606850558,Restaurant
656,Bonsucesso,-22.865931589836674,-43.25380287688809,PP Gastrô,-22.862940345483796,-43.25336847337508,Latin American Restaurant
657,Bonsucesso,-22.865931589836674,-43.25380287688809,Mundo Verde,-22.862356178009392,-43.25405627089547,Health Food Store
658,Bonsucesso,-22.865931589836674,-43.25380287688809,Cacau Show,-22.86557808,-43.25441837,Chocolate Shop
659,Bonsucesso,-22.865931589836674,-43.25380287688809,Gargalo's Sushi,-22.862697159595843,-43.25457681963366,Japanese Restaurant
660,Bonsucesso,-22.865931589836674,-43.25380287688809,Burburinho Bar e Restaurante,-22.864690918519695,-43.25028577473274,Bar
661,Bonsucesso,-22.865931589836674,-43.25380287688809,Boisucesso Restaurante,-22.862665648548305,-43.25366662330593,Brazilian Restaurant
662,Bonsucesso,-22.865931589836674,-43.25380287688809,Academia Body Life,-22.862166085423816,-43.25401919001858,Gym
663,Bonsucesso,-22.865931589836674,-43.25380287688809,Subway,-22.866932262483797,-43.25488531276799,Sandwich Place
664,Bonsucesso,-22.865931589836674,-43.25380287688809,Restaurante Bom na Brasa,-22.86770655263251,-43.25488475708311,Brazilian Restaurant
665,Bonsucesso,-22.865931589836674,-43.25380287688809,C&A,-22.86269146284362,-43.254750460348575,Men's Store
666,Bonsucesso,-22.865931589836674,-43.25380287688809,C & A Bonsucesso,-22.863505274993333,-43.25418238984214,Department Store
667,Bonsucesso,-22.865931589836674,-43.25380287688809,Spoleto Culinária Italiana,-22.864392157787098,-43.253369386979955,Italian Restaurant
668,Bonsucesso,-22.865931589836674,-43.25380287688809,Padaria e Confeitaria Sabor do Grão,-22.86266522186253,-43.254134870350086,Bakery
669,Bonsucesso,-22.865931589836674,-43.25380287688809,SuperVia - Estação Bonsucesso,-22.867370415219693,-43.255425751076686,Train Station
670,Bonsucesso,-22.865931589836674,-43.25380287688809,Avícola Pavão de Bonsucesso,-22.863625,-43.25395,Pet Store
671,Bonsucesso,-22.865931589836674,-43.25380287688809,Supemercado Guanabara Bonsucesso,-22.86523115078282,-43.250500170234595,Grocery Store
672,Inhaúma,-22.871936747090334,-43.28178335840794,Pastel da Feira,-22.87180592712067,-43.282879510084484,Pastelaria
673,Inhaúma,-22.871936747090334,-43.28178335840794,Praça Vinte e Quatro de Outubro,-22.872666114812723,-43.28197682941682,Plaza
674,Inhaúma,-22.871936747090334,-43.28178335840794,Universo das pizzas,-22.871956653082847,-43.281688921957816,Pizza Place
675,Inhaúma,-22.871936747090334,-43.28178335840794,Adega Rio Agueda,-22.872217382950655,-43.28096678606198,Brazilian Restaurant
676,Inhaúma,-22.871936747090334,-43.28178335840794,Shopping de Inhaúma,-22.873355327045445,-43.2810234246141,Shopping Mall
677,Inhaúma,-22.871936747090334,-43.28178335840794,Shopping das Frutas,-22.873079372429128,-43.28042871738113,Farmers Market
678,Inhaúma,-22.871936747090334,-43.28178335840794,Sopas e Caldos Carioca,-22.873362087474096,-43.28274614778847,Soup Place
679,Inhaúma,-22.871936747090334,-43.28178335840794,Show de Bola Futebol Society,-22.8723,-43.282,Athletics & Sports
680,Inhaúma,-22.871936747090334,-43.28178335840794,Clube Português Inhaúma,-22.872043556799987,-43.28450184853826,Gym
681,Inhaúma,-22.871936747090334,-43.28178335840794,Feira de Inhaúma,-22.872061750599883,-43.28457611917006,Farmers Market
682,Inhaúma,-22.871936747090334,-43.28178335840794,MetrôRio - Estação Inhaúma,-22.87427726318275,-43.28357934951782,Metro Station
683,Inhaúma,-22.871936747090334,-43.28178335840794,Alô Delivery Pizzas,-22.86896923825201,-43.28126885728744,Fast Food Restaurant
684,Inhaúma,-22.871936747090334,-43.28178335840794,MC Lanches do Gordão,-22.87498175198163,-43.279031599604444,Burger Joint
685,Tomás Coelho,-22.867174110597404,-43.30601077684911,Academia Animal King,-22.86501158027477,-43.3019705494995,Gym
686,Tomás Coelho,-22.867174110597404,-43.30601077684911,Supervia - Estação Tomás Coelho,-22.869228816991193,-43.304305853883704,Train Station
687,Tomás Coelho,-22.867174110597404,-43.30601077684911,Sabor Caseiro do Engenho,-22.86491744132002,-43.3050795468581,Wings Joint
688,Tomás Coelho,-22.867174110597404,-43.30601077684911,JM Academia,-22.86450826761645,-43.30697598757423,Gym
689,Tomás Coelho,-22.867174110597404,-43.30601077684911,Grupo Frame,-22.86442895945733,-43.30791002897018,Factory
690,Tomás Coelho,-22.867174110597404,-43.30601077684911,Crazy Burguer,-22.86580908402894,-43.301498757604755,Burger Joint
691,Madureira,-22.87236730718911,-43.33656558679708,MegaMatte,-22.87281141478782,-43.33884241497299,Snack Place
692,Madureira,-22.87236730718911,-43.33656558679708,Frigideira & Cia,-22.875105170625375,-43.33643454955561,Brazilian Restaurant
693,Madureira,-22.87236730718911,-43.33656558679708,World Joias Madureira,-22.874633127053897,-43.34048509597778,Jewelry Store
694,Madureira,-22.87236730718911,-43.33656558679708,Smart Fit,-22.873524629536742,-43.33788750536622,Gym / Fitness Center
695,Madureira,-22.87236730718911,-43.33656558679708,G.R.E.S. Império Serrano,-22.87426304905698,-43.33640751050005,Samba School
696,Madureira,-22.87236730718911,-43.33656558679708,Mercadão de Madureira,-22.87080628958594,-43.336276762450225,Market
697,Madureira,-22.87236730718911,-43.33656558679708,Demas & Divas,-22.870973016990412,-43.341195695154724,Steakhouse
698,Madureira,-22.87236730718911,-43.33656558679708,Cacau Show,-22.874124763141953,-43.3390441917487,Chocolate Shop
699,Madureira,-22.87236730718911,-43.33656558679708,Pink Casa da Manicura,-22.870507019237305,-43.33712539420654,Cosmetics Shop
700,Madureira,-22.87236730718911,-43.33656558679708,Boate PapaG,-22.875364939447067,-43.336371055579505,Music Venue
701,Madureira,-22.87236730718911,-43.33656558679708,Big 2000,-22.87167266848566,-43.337035522383346,Candy Store
702,Madureira,-22.87236730718911,-43.33656558679708,Sorrisos Central Lanches E Restaurante,-22.872292724043348,-43.34107963361806,Restaurant
703,Madureira,-22.87236730718911,-43.33656558679708,Boteco Do Ze.com.br,-22.876006478732755,-43.3366576011791,Dive Bar
704,Madureira,-22.87236730718911,-43.33656558679708,Fórmula Academia,-22.87047110797724,-43.34016439011856,Gym / Fitness Center
705,Madureira,-22.87236730718911,-43.33656558679708,McDonald's,-22.874049603039886,-43.33699618499795,Fast Food Restaurant
706,Madureira,-22.87236730718911,-43.33656558679708,Frigideira e Cia,-22.875401854768338,-43.33894158110797,Restaurant
707,Madureira,-22.87236730718911,-43.33656558679708,Arte Popular Madureira,-22.873946512164295,-43.339232791751115,Brazilian Restaurant
708,Madureira,-22.87236730718911,-43.33656558679708,Havaianas,-22.87137857506233,-43.34101477196181,Shoe Store
709,Madureira,-22.87236730718911,-43.33656558679708,Papa G,-22.875749092714223,-43.336336894264846,Nightclub
710,Madureira,-22.87236730718911,-43.33656558679708,Espaço Vida Saudável,-22.875074127201053,-43.33969006033559,Tea Room
711,Madureira,-22.87236730718911,-43.33656558679708,Droga Raia,-22.876087399504637,-43.336059887577456,Pharmacy
712,Madureira,-22.87236730718911,-43.33656558679708,Estádio Aniceto Moscoso,-22.869701831116128,-43.33765813899878,Soccer Stadium
713,Madureira,-22.87236730718911,-43.33656558679708,Bob's,-22.87556689174751,-43.335949515507046,Fast Food Restaurant
714,Madureira,-22.87236730718911,-43.33656558679708,C&A Madureira,-22.87358751751227,-43.33791083715325,Department Store
715,Madureira,-22.87236730718911,-43.33656558679708,Oi,-22.87105608431473,-43.340896916479466,Mobile Phone Shop
716,Madureira,-22.87236730718911,-43.33656558679708,Bob's,-22.870874386327827,-43.335796085687164,Fast Food Restaurant
717,Madureira,-22.87236730718911,-43.33656558679708,Shopping Polo 1,-22.873234378390197,-43.339046086702574,Shopping Plaza
718,Madureira,-22.87236730718911,-43.33656558679708,Lojas Americanas,-22.87291819826165,-43.33851174566606,Department Store
719,Madureira,-22.87236730718911,-43.33656558679708,SuperVia - Estação Mercadão de Madureira,-22.872870166927015,-43.336998731943474,Train Station
720,Madureira,-22.87236730718911,-43.33656558679708,Rei Do Banner,-22.870799,-43.337128,Print Shop
721,Osvaldo Cruz,-22.871547109925988,-43.350810460110495,Adega Góes,-22.868365616057403,-43.352025783120695,Wine Bar
722,Osvaldo Cruz,-22.871547109925988,-43.350810460110495,SuperVia - Estação Oswaldo Cruz,-22.86938262749026,-43.34980600668926,Train Station
723,Osvaldo Cruz,-22.871547109925988,-43.350810460110495,Ching Ling Oswaldo Cruz,-22.869609190619652,-43.34979657992074,Asian Restaurant
724,Osvaldo Cruz,-22.871547109925988,-43.350810460110495,Açaí da Bia,-22.873674744298697,-43.349117847909206,Food Truck
725,Osvaldo Cruz,-22.871547109925988,-43.350810460110495,Mania de Bola,-22.869525019472622,-43.34796547058506,Athletics & Sports
726,Osvaldo Cruz,-22.871547109925988,-43.350810460110495,Academia Mania de Malhar,-22.871705485868173,-43.34650181529447,Gym / Fitness Center
727,Osvaldo Cruz,-22.871547109925988,-43.350810460110495,Padaria e Confeitaria Antônio Carlos,-22.867613467133246,-43.3522569061058,Bakery
728,Santíssimo,-22.874389978698368,-43.520309674730285,Academia República Da Posse,-22.87483512533541,-43.521871960985024,Gym
729,Santíssimo,-22.874389978698368,-43.520309674730285,Bar Do Pedrinho,-22.871866723131404,-43.51818019349931,Southeastern Brazilian Restaurant
730,Santíssimo,-22.874389978698368,-43.520309674730285,VO2 Fit,-22.875247486324934,-43.524492868951064,Gym
731,Santíssimo,-22.874389978698368,-43.520309674730285,Spa Da Mulher,-22.875247,-43.524495,Spa
732,Santíssimo,-22.874389978698368,-43.520309674730285,Milk Shake Mix,-22.873917,-43.515667,Ice Cream Shop
733,Santíssimo,-22.874389978698368,-43.520309674730285,Mellos Burg - Estrada Da Posse,-22.875625,-43.52497,Snack Place
734,Magalhães Bastos,-22.87254646368401,-43.41364591536331,Alfaiataria Barroso,-22.87032789267827,-43.41099742454528,Tailor Shop
735,Magalhães Bastos,-22.87254646368401,-43.41364591536331,Espaço Gym Academia,-22.874241565191824,-43.41810814604719,Gym / Fitness Center
736,Magalhães Bastos,-22.87254646368401,-43.41364591536331,Panificadora Nossa Senhora da Conceição,-22.87115343424035,-43.41397865858773,Bakery
737,Magalhães Bastos,-22.87254646368401,-43.41364591536331,SuperVia - Estação Magalhães Bastos,-22.868100082366787,-43.41357971190135,Train Station
738,Magalhães Bastos,-22.87254646368401,-43.41364591536331,Esporte Clube São Jose,-22.87064645564281,-43.41397983557127,Sports Club
739,Magalhães Bastos,-22.87254646368401,-43.41364591536331,Porcão Gourmet,-22.87545408811913,-43.41572622003263,Brazilian Restaurant
740,Senador Camará,-22.89679257123721,-43.48982814874945,Campo Do Royal,-22.896568992488444,-43.48604837116716,Soccer Field
741,Senador Camará,-22.89679257123721,-43.48982814874945,Celso Pimenta Mecânica,-22.897491,-43.48798,Auto Garage
742,Senador Camará,-22.89679257123721,-43.48982814874945,Texas Music,-22.89711382814344,-43.49254402475014,Restaurant
743,Senador Camará,-22.89679257123721,-43.48982814874945,Body Life - Academia,-22.895245148787907,-43.48563002565489,Gym / Fitness Center
744,Cavalcanti,-22.870737314684835,-43.316732825256665,Della Luna,-22.870713020712763,-43.313174299805375,Pizza Place
745,Cavalcanti,-22.870737314684835,-43.316732825256665,BranDel'hil SportFitness,-22.871252565669213,-43.31543157139222,Gym
746,Cavalcanti,-22.870737314684835,-43.316732825256665,Mc Doyle Lanches,-22.868408578161894,-43.316376931873144,Burger Joint
747,Cavalcanti,-22.870737314684835,-43.316732825256665,Panificadora Cabral,-22.868360261990926,-43.316357132743896,Bakery
748,Cavalcanti,-22.870737314684835,-43.316732825256665,Posto Shell,-22.868352718405422,-43.31629675065723,Gas Station
749,Cavalcanti,-22.870737314684835,-43.316732825256665,Academia Ação e Reação,-22.868772506713867,-43.319725036621094,Athletics & Sports
750,Cavalcanti,-22.870737314684835,-43.316732825256665,Açaí Tumucumaque,-22.870304,-43.31226,Acai House
751,Campo dos Afonsos,-22.87841465568427,-43.383256155595085,Museu Aeroespacial,-22.880682670182093,-43.385009765625,Museum
752,Campo dos Afonsos,-22.87841465568427,-43.383256155595085,Hotel de Trânsito dos Oficiais,-22.88092803171864,-43.38386742855133,Hotel
753,Campo dos Afonsos,-22.87841465568427,-43.383256155595085,Cantina,-22.8817093377328,-43.385812179012774,Snack Place
754,Campo dos Afonsos,-22.87841465568427,-43.383256155595085,Ginásio Poliesportivo Brigadeiro do Ar Eduardo Gomes,-22.882237421038063,-43.38531060252422,Athletics & Sports
755,Higienópolis,-22.873894998299168,-43.26178062688724,Companhia do Exercício,-22.873702935445074,-43.265203713238854,Gym
756,Higienópolis,-22.873894998299168,-43.26178062688724,Pexinchete,-22.8726444987584,-43.26024527946798,Market
757,Higienópolis,-22.873894998299168,-43.26178062688724,Brooklyn Burger & Beer,-22.87295250118906,-43.25838859321205,Burger Joint
758,Higienópolis,-22.873894998299168,-43.26178062688724,Subway,-22.87179996933879,-43.258389232099326,Sandwich Place
759,Higienópolis,-22.873894998299168,-43.26178062688724,Pagode referencia,-22.877534636256545,-43.26174627050692,Nightclub
760,Higienópolis,-22.873894998299168,-43.26178062688724,Bela Grécia,-22.87397714022792,-43.265613209236065,Bakery
761,Higienópolis,-22.873894998299168,-43.26178062688724,Academia Acqua Marinho,-22.875012283957048,-43.26186495495253,Gym / Fitness Center
762,Higienópolis,-22.873894998299168,-43.26178062688724,Sinucão,-22.874165738637053,-43.26610734311488,Pool Hall
763,Higienópolis,-22.873894998299168,-43.26178062688724,Morro do Alemão,-22.871614290163183,-43.25790016530138,Mountain
764,Higienópolis,-22.873894998299168,-43.26178062688724,Praça Santa Mariana,-22.87030639195229,-43.26096287255335,Plaza
765,Higienópolis,-22.873894998299168,-43.26178062688724,Espaço Da Beleza,-22.872850707035738,-43.26178253284494,Health & Beauty Service
766,Higienópolis,-22.873894998299168,-43.26178062688724,Bar do Albérico,-22.875946959876032,-43.263013882716464,Restaurant
767,Higienópolis,-22.873894998299168,-43.26178062688724,Padaria Montalvan,-22.87265066091407,-43.25906177568372,Bakery
768,Higienópolis,-22.873894998299168,-43.26178062688724,Bob's,-22.871824099208734,-43.25822359176753,Fast Food Restaurant
769,Higienópolis,-22.873894998299168,-43.26178062688724,Burguer Grill,-22.87302174365871,-43.25829209376235,Burger Joint
770,Higienópolis,-22.873894998299168,-43.26178062688724,Ponto de ônibus,-22.873548796878822,-43.25812682309796,Bus Station
771,Higienópolis,-22.873894998299168,-43.26178062688724,Las paletitas,-22.873976,-43.265713,Ice Cream Shop
772,Higienópolis,-22.873894998299168,-43.26178062688724,Pet Shop Vita Shop,-22.871857950533315,-43.25838750705243,Pet Store
773,Higienópolis,-22.873894998299168,-43.26178062688724,Linha Amarela - Saída 7,-22.87159170910636,-43.25840542190322,Intersection
774,Higienópolis,-22.873894998299168,-43.26178062688724,Burger & Shake,-22.875826562098563,-43.26542654526299,Burger Joint
775,Higienópolis,-22.873894998299168,-43.26178062688724,FETAERJ,-22.87131801616141,-43.265232969967904,Theater
776,Higienópolis,-22.873894998299168,-43.26178062688724,Buka Lanches,-22.87221441677669,-43.265870349216506,Burger Joint
777,Abolição,-22.885969795595077,-43.299412385602345,Crepe Lieto,-22.8854567541486,-43.29935421346687,Deli / Bodega
778,Abolição,-22.885969795595077,-43.299412385602345,Esquina do Espeto,-22.887830095678975,-43.30274010443252,Restaurant
779,Abolição,-22.885969795595077,-43.299412385602345,Catirí Lanches,-22.884882865946746,-43.29655411101742,Food Truck
780,Abolição,-22.885969795595077,-43.299412385602345,Braseiro do Sul Churrascaria Rodízio,-22.885165130281855,-43.298590453522706,BBQ Joint
781,Abolição,-22.885969795595077,-43.299412385602345,Rei do Bacalhau,-22.889825768307293,-43.30084143406588,Portuguese Restaurant
782,Abolição,-22.885969795595077,-43.299412385602345,Via Mix Fast Food,-22.885196145751834,-43.29884341289891,Fast Food Restaurant
783,Abolição,-22.885969795595077,-43.299412385602345,Tabajara Pizza Show,-22.884065373223425,-43.2977620087034,Pizza Place
784,Abolição,-22.885969795595077,-43.299412385602345,Largo da Abolição,-22.885416387458744,-43.29960061444284,Plaza
785,Abolição,-22.885969795595077,-43.299412385602345,Choppinho da Abolição,-22.88542769938467,-43.299582103307884,Bar
786,Abolição,-22.885969795595077,-43.299412385602345,Espetto Carioca,-22.88741323436797,-43.302761577182395,BBQ Joint
787,Abolição,-22.885969795595077,-43.299412385602345,Subway,-22.885434293916926,-43.29961830102423,Sandwich Place
788,Abolição,-22.885969795595077,-43.299412385602345,York Na Brasa Churrascaria Rodízio,-22.884738910237324,-43.29875644852823,BBQ Joint
789,Abolição,-22.885969795595077,-43.299412385602345,Padaria Flor Luzitania,-22.88603065716659,-43.30273012510572,Bakery
790,Abolição,-22.885969795595077,-43.299412385602345,Rei dos Quadros,-22.883372589958054,-43.29647861644435,Frame Store
791,Abolição,-22.885969795595077,-43.299412385602345,Sambola Hall,-22.88626930810477,-43.302661655943616,Concert Hall
792,Abolição,-22.885969795595077,-43.299412385602345,Churrasquinho do Beleza,-22.885426,-43.30053,BBQ Joint
793,Abolição,-22.885969795595077,-43.299412385602345,Rei das tintas,-22.885421328281115,-43.30052685228422,Arts & Crafts Store
794,Abolição,-22.885969795595077,-43.299412385602345,Esquina dos acidentes!,-22.88542129738635,-43.299607969384454,Go Kart Track
795,Abolição,-22.885969795595077,-43.299412385602345,Abolição Hortifruti,-22.88522581127561,-43.29896987724417,Deli / Bodega
796,Abolição,-22.885969795595077,-43.299412385602345,Sala De Musculação BodyCoach Club,-22.88541210125107,-43.299598739213955,Gymnastics Gym
797,Abolição,-22.885969795595077,-43.299412385602345,Drogarias Pacheco,-22.885428455948723,-43.29961180765881,Pharmacy
798,Abolição,-22.885969795595077,-43.299412385602345,Boy Viny Lanches,-22.88397216796875,-43.29894256591797,Burger Joint
799,Abolição,-22.885969795595077,-43.299412385602345,Experimenta ABOLICAO,-22.882415,-43.30221,Snack Place
800,Abolição,-22.885969795595077,-43.299412385602345,Cti Do Chopp,-22.886638128401955,-43.30210736831709,Restaurant
801,Abolição,-22.885969795595077,-43.299412385602345,Loteria Sortele,-22.88373046939536,-43.29574725687414,Lottery Retailer
802,Abolição,-22.885969795595077,-43.299412385602345,Trailler Pomar - Osmar,-22.887544570207588,-43.29494510828625,Food Truck
803,Manguinhos,-22.880557172302034,-43.24578965607693,Museu da Vida,-22.879314718108663,-43.243297467968965,Museum
804,Manguinhos,-22.880557172302034,-43.24578965607693,Restaurante Laboratório Culinário,-22.879169587114337,-43.24197454781865,Brazilian Restaurant
805,Manguinhos,-22.880557172302034,-43.24578965607693,Bar do Magno,-22.88357324467199,-43.247557814114735,Bar
806,Manguinhos,-22.880557172302034,-43.24578965607693,Parque da Ciência,-22.876842,-43.244107,Science Museum
807,Engenheiro Leal,-22.874471091143338,-43.3254751818137,Baile Charme do Viaduto de Madureira,-22.875666861469554,-43.3300714362395,Music Venue
808,Engenheiro Leal,-22.874471091143338,-43.3254751818137,G.R.E.S. Arrastão de Cascadura,-22.87734239581286,-43.3230409564575,Samba School
